[
  {"id":"new_york","name":"New York City","country":"US","country_name":"United States","lat":40.7128,"lon":-74.0060,"population":8336817,"metro_population":20153634,"is_capital":false,"is_major_target":true,"has_military_base":true,"military_type":"command","nuclear_target_priority":1,"region":"North_America"},
  {"id":"los_angeles","name":"Los Angeles","country":"US","country_name":"United States","lat":34.0522,"lon":-118.2437,"population":3979576,"metro_population":13200998,"is_capital":false,"is_major_target":true,"has_military_base":true,"military_type":"air_base","nuclear_target_priority":1,"region":"North_America"},
  {"id":"chicago","name":"Chicago","country":"US","country_name":"United States","lat":41.8781,"lon":-87.6298,"population":2693976,"metro_population":9458539,"is_capital":false,"is_major_target":true,"has_military_base":false,"military_type":null,"nuclear_target_priority":1,"region":"North_America"},
  {"id":"houston","name":"Houston","country":"US","country_name":"United States","lat":29.7604,"lon":-95.3698,"population":2304580,"metro_population":7066141,"is_capital":false,"is_major_target":true,"has_military_base":false,"military_type":null,"nuclear_target_priority":2,"region":"North_America"},
  {"id":"phoenix","name":"Phoenix","country":"US","country_name":"United States","lat":33.4484,"lon":-112.0740,"population":1608139,"metro_population":4948203,"is_capital":false,"is_major_target":false,"has_military_base":true,"military_type":"air_base","nuclear_target_priority":2,"region":"North_America"},
  {"id":"philadelphia","name":"Philadelphia","country":"US","country_name":"United States","lat":39.9526,"lon":-75.1652,"population":1584064,"metro_population":6096372,"is_capital":false,"is_major_target":true,"has_military_base":false,"military_type":null,"nuclear_target_priority":2,"region":"North_America"},
  {"id":"san_antonio","name":"San Antonio","country":"US","country_name":"United States","lat":29.4241,"lon":-98.4936,"population":1434625,"metro_population":2550960,"is_capital":false,"is_major_target":false,"has_military_base":true,"military_type":"air_base","nuclear_target_priority":2,"region":"North_America"},
  {"id":"san_diego","name":"San Diego","country":"US","country_name":"United States","lat":32.7157,"lon":-117.1611,"population":1386932,"metro_population":3317749,"is_capital":false,"is_major_target":true,"has_military_base":true,"military_type":"submarine_base","nuclear_target_priority":1,"region":"North_America"},
  {"id":"dallas","name":"Dallas","country":"US","country_name":"United States","lat":32.7767,"lon":-96.7970,"population":1304379,"metro_population":7573136,"is_capital":false,"is_major_target":true,"has_military_base":false,"military_type":null,"nuclear_target_priority":2,"region":"North_America"},
  {"id":"san_jose","name":"San Jose","country":"US","country_name":"United States","lat":37.3382,"lon":-121.8863,"population":1021795,"metro_population":1990696,"is_capital":false,"is_major_target":false,"has_military_base":false,"military_type":null,"nuclear_target_priority":3,"region":"North_America"},
  {"id":"washington_dc","name":"Washington D.C.","country":"US","country_name":"United States","lat":38.9072,"lon":-77.0369,"population":705749,"metro_population":6385162,"is_capital":true,"is_major_target":true,"has_military_base":true,"military_type":"command","nuclear_target_priority":1,"region":"North_America"},
  {"id":"seattle","name":"Seattle","country":"US","country_name":"United States","lat":47.6062,"lon":-122.3321,"population":737255,"metro_population":4018762,"is_capital":false,"is_major_target":true,"has_military_base":true,"military_type":"submarine_base","nuclear_target_priority":1,"region":"North_America"},
  {"id":"denver","name":"Denver","country":"US","country_name":"United States","lat":39.7392,"lon":-104.9903,"population":715522,"metro_population":2967239,"is_capital":false,"is_major_target":true,"has_military_base":true,"military_type":"command","nuclear_target_priority":1,"region":"North_America"},
  {"id":"boston","name":"Boston","country":"US","country_name":"United States","lat":42.3601,"lon":-71.0589,"population":675647,"metro_population":4873019,"is_capital":false,"is_major_target":true,"has_military_base":false,"military_type":null,"nuclear_target_priority":2,"region":"North_America"},
  {"id":"miami","name":"Miami","country":"US","country_name":"United States","lat":25.7617,"lon":-80.1918,"population":467963,"metro_population":6166488,"is_capital":false,"is_major_target":true,"has_military_base":true,"military_type":"command","nuclear_target_priority":1,"region":"North_America"},
  {"id":"atlanta","name":"Atlanta","country":"US","country_name":"United States","lat":33.7490,"lon":-84.3880,"population":498715,"metro_population":6144050,"is_capital":false,"is_major_target":false,"has_military_base":false,"military_type":null,"nuclear_target_priority":2,"region":"North_America"},
  {"id":"minneapolis","name":"Minneapolis","country":"US","country_name":"United States","lat":44.9778,"lon":-93.2650,"population":429954,"metro_population":3640043,"is_capital":false,"is_major_target":false,"has_military_base":false,"military_type":null,"nuclear_target_priority":3,"region":"North_America"},
  {"id":"omaha","name":"Omaha","country":"US","country_name":"United States","lat":41.2565,"lon":-95.9345,"population":486051,"metro_population":967604,"is_capital":false,"is_major_target":true,"has_military_base":true,"military_type":"command","nuclear_target_priority":1,"region":"North_America"},
  {"id":"offutt_afb","name":"Offutt AFB (STRATCOM HQ)","country":"US","country_name":"United States","lat":41.1183,"lon":-95.9124,"population":10000,"metro_population":null,"is_capital":false,"is_major_target":true,"has_military_base":true,"military_type":"command","nuclear_target_priority":1,"region":"North_America"},
  {"id":"cheyenne_mountain","name":"Cheyenne Mountain (NORAD)","country":"US","country_name":"United States","lat":38.7440,"lon":-104.8460,"population":500,"metro_population":null,"is_capital":false,"is_major_target":true,"has_military_base":true,"military_type":"command","nuclear_target_priority":1,"region":"North_America"},
  {"id":"fe_warren_afb","name":"F.E. Warren AFB (ICBM)","country":"US","country_name":"United States","lat":41.1450,"lon":-104.8300,"population":5000,"metro_population":null,"is_capital":false,"is_major_target":true,"has_military_base":true,"military_type":"ICBM_field","nuclear_target_priority":1,"region":"North_America"},
  {"id":"malmstrom_afb","name":"Malmstrom AFB (ICBM)","country":"US","country_name":"United States","lat":47.5090,"lon":-111.1870,"population":5000,"metro_population":null,"is_capital":false,"is_major_target":true,"has_military_base":true,"military_type":"ICBM_field","nuclear_target_priority":1,"region":"North_America"},
  {"id":"minot_afb","name":"Minot AFB (ICBM/Bomber)","country":"US","country_name":"United States","lat":48.4155,"lon":-101.3580,"population":5000,"metro_population":null,"is_capital":false,"is_major_target":true,"has_military_base":true,"military_type":"ICBM_field","nuclear_target_priority":1,"region":"North_America"},
  {"id":"bangor_submarine_base","name":"Naval Base Kitsap (Bangor)","country":"US","country_name":"United States","lat":47.7340,"lon":-122.7070,"population":10000,"metro_population":null,"is_capital":false,"is_major_target":true,"has_military_base":true,"military_type":"submarine_base","nuclear_target_priority":1,"region":"North_America"},
  {"id":"kings_bay_submarine","name":"Kings Bay Submarine Base","country":"US","country_name":"United States","lat":30.7938,"lon":-81.5520,"population":10000,"metro_population":null,"is_capital":false,"is_major_target":true,"has_military_base":true,"military_type":"submarine_base","nuclear_target_priority":1,"region":"North_America"},
  {"id":"moscow","name":"Moscow","country":"RU","country_name":"Russia","lat":55.7558,"lon":37.6173,"population":12506468,"metro_population":17693000,"is_capital":true,"is_major_target":true,"has_military_base":true,"military_type":"command","nuclear_target_priority":1,"region":"Russia"},
  {"id":"st_petersburg","name":"Saint Petersburg","country":"RU","country_name":"Russia","lat":59.9311,"lon":30.3609,"population":5384342,"metro_population":6200000,"is_capital":false,"is_major_target":true,"has_military_base":true,"military_type":"submarine_base","nuclear_target_priority":1,"region":"Russia"},
  {"id":"novosibirsk","name":"Novosibirsk","country":"RU","country_name":"Russia","lat":54.9885,"lon":82.9207,"population":1625631,"metro_population":1800000,"is_capital":false,"is_major_target":true,"has_military_base":true,"military_type":"air_base","nuclear_target_priority":2,"region":"Russia"},
  {"id":"yekaterinburg","name":"Yekaterinburg","country":"RU","country_name":"Russia","lat":56.8389,"lon":60.6057,"population":1544376,"metro_population":2000000,"is_capital":false,"is_major_target":true,"has_military_base":false,"military_type":null,"nuclear_target_priority":2,"region":"Russia"},
  {"id":"nizhny_novgorod","name":"Nizhny Novgorod","country":"RU","country_name":"Russia","lat":56.3269,"lon":44.0059,"population":1252236,"metro_population":1700000,"is_capital":false,"is_major_target":false,"has_military_base":false,"military_type":null,"nuclear_target_priority":3,"region":"Russia"},
  {"id":"kazan","name":"Kazan","country":"RU","country_name":"Russia","lat":55.7887,"lon":49.1221,"population":1257391,"metro_population":1400000,"is_capital":false,"is_major_target":false,"has_military_base":false,"military_type":null,"nuclear_target_priority":3,"region":"Russia"},
  {"id":"chelyabinsk","name":"Chelyabinsk","country":"RU","country_name":"Russia","lat":55.1644,"lon":61.4368,"population":1202371,"metro_population":1400000,"is_capital":false,"is_major_target":false,"has_military_base":false,"military_type":null,"nuclear_target_priority":3,"region":"Russia"},
  {"id":"omsk_russia","name":"Omsk","country":"RU","country_name":"Russia","lat":54.9885,"lon":73.3242,"population":1154507,"metro_population":1250000,"is_capital":false,"is_major_target":false,"has_military_base":false,"military_type":null,"nuclear_target_priority":3,"region":"Russia"},
  {"id":"samara","name":"Samara","country":"RU","country_name":"Russia","lat":53.2001,"lon":50.1500,"population":1156659,"metro_population":1300000,"is_capital":false,"is_major_target":false,"has_military_base":false,"military_type":null,"nuclear_target_priority":3,"region":"Russia"},
  {"id":"ufa","name":"Ufa","country":"RU","country_name":"Russia","lat":54.7388,"lon":55.9721,"population":1128787,"metro_population":1300000,"is_capital":false,"is_major_target":false,"has_military_base":false,"military_type":null,"nuclear_target_priority":3,"region":"Russia"},
  {"id":"rostov_on_don","name":"Rostov-on-Don","country":"RU","country_name":"Russia","lat":47.2357,"lon":39.7015,"population":1137904,"metro_population":1300000,"is_capital":false,"is_major_target":false,"has_military_base":true,"military_type":"air_base","nuclear_target_priority":2,"region":"Russia"},
  {"id":"krasnoyarsk","name":"Krasnoyarsk","country":"RU","country_name":"Russia","lat":56.0153,"lon":92.8932,"population":1091936,"metro_population":1200000,"is_capital":false,"is_major_target":false,"has_military_base":false,"military_type":null,"nuclear_target_priority":3,"region":"Russia"},
  {"id":"voronezh","name":"Voronezh","country":"RU","country_name":"Russia","lat":51.6755,"lon":39.2088,"population":1058261,"metro_population":1200000,"is_capital":false,"is_major_target":false,"has_military_base":false,"military_type":null,"nuclear_target_priority":3,"region":"Russia"},
  {"id":"vladivostok","name":"Vladivostok","country":"RU","country_name":"Russia","lat":43.1155,"lon":131.8855,"population":606653,"metro_population":800000,"is_capital":false,"is_major_target":true,"has_military_base":true,"military_type":"submarine_base","nuclear_target_priority":1,"region":"Russia"},
  {"id":"kozelsk","name":"Kozelsk ICBM Base","country":"RU","country_name":"Russia","lat":54.0333,"lon":35.7833,"population":15000,"metro_population":null,"is_capital":false,"is_major_target":true,"has_military_base":true,"military_type":"ICBM_field","nuclear_target_priority":1,"region":"Russia"},
  {"id":"tatischevo","name":"Tatishchevo ICBM Base","country":"RU","country_name":"Russia","lat":51.6717,"lon":45.9975,"population":10000,"metro_population":null,"is_capital":false,"is_major_target":true,"has_military_base":true,"military_type":"ICBM_field","nuclear_target_priority":1,"region":"Russia"},
  {"id":"uzhur","name":"Uzhur ICBM Base","country":"RU","country_name":"Russia","lat":55.3297,"lon":89.8347,"population":15000,"metro_population":null,"is_capital":false,"is_major_target":true,"has_military_base":true,"military_type":"ICBM_field","nuclear_target_priority":1,"region":"Russia"},
  {"id":"dombarovsky","name":"Dombarovsky ICBM Base","country":"RU","country_name":"Russia","lat":50.7750,"lon":59.5347,"population":10000,"metro_population":null,"is_capital":false,"is_major_target":true,"has_military_base":true,"military_type":"ICBM_field","nuclear_target_priority":1,"region":"Russia"},
  {"id":"gadzhiyevo","name":"Gadzhiyevo Submarine Base","country":"RU","country_name":"Russia","lat":69.2540,"lon":33.3200,"population":15000,"metro_population":null,"is_capital":false,"is_major_target":true,"has_military_base":true,"military_type":"submarine_base","nuclear_target_priority":1,"region":"Russia"},
  {"id":"petropavlovsk_kamchatsky","name":"Petropavlovsk-Kamchatsky Sub Base","country":"RU","country_name":"Russia","lat":53.0452,"lon":158.6502,"population":180000,"metro_population":null,"is_capital":false,"is_major_target":true,"has_military_base":true,"military_type":"submarine_base","nuclear_target_priority":1,"region":"Russia"},
  {"id":"beijing","name":"Beijing","country":"CN","country_name":"China","lat":39.9042,"lon":116.4074,"population":21893095,"metro_population":24900000,"is_capital":true,"is_major_target":true,"has_military_base":true,"military_type":"command","nuclear_target_priority":1,"region":"China"},
  {"id":"shanghai","name":"Shanghai","country":"CN","country_name":"China","lat":31.2304,"lon":121.4737,"population":24870895,"metro_population":34750000,"is_capital":false,"is_major_target":true,"has_military_base":false,"military_type":null,"nuclear_target_priority":1,"region":"China"},
  {"id":"guangzhou","name":"Guangzhou","country":"CN","country_name":"China","lat":23.1291,"lon":113.2644,"population":16096724,"metro_population":46900000,"is_capital":false,"is_major_target":true,"has_military_base":false,"military_type":null,"nuclear_target_priority":1,"region":"China"},
  {"id":"shenzhen","name":"Shenzhen","country":"CN","country_name":"China","lat":22.5431,"lon":114.0579,"population":17560061,"metro_population":24000000,"is_capital":false,"is_major_target":true,"has_military_base":false,"military_type":null,"nuclear_target_priority":2,"region":"China"},
  {"id":"chongqing","name":"Chongqing","country":"CN","country_name":"China","lat":29.4316,"lon":106.9123,"population":32000000,"metro_population":32000000,"is_capital":false,"is_major_target":true,"has_military_base":false,"military_type":null,"nuclear_target_priority":2,"region":"China"},
  {"id":"chengdu","name":"Chengdu","country":"CN","country_name":"China","lat":30.5728,"lon":104.0668,"population":9059697,"metro_population":21000000,"is_capital":false,"is_major_target":true,"has_military_base":true,"military_type":"air_base","nuclear_target_priority":2,"region":"China"},
  {"id":"wuhan","name":"Wuhan","country":"CN","country_name":"China","lat":30.5928,"lon":114.3055,"population":11081000,"metro_population":12000000,"is_capital":false,"is_major_target":true,"has_military_base":false,"military_type":null,"nuclear_target_priority":2,"region":"China"},
  {"id":"xian","name":"Xi'an","country":"CN","country_name":"China","lat":34.3416,"lon":108.9398,"population":9600946,"metro_population":13000000,"is_capital":false,"is_major_target":false,"has_military_base":true,"military_type":"air_base","nuclear_target_priority":2,"region":"China"},
  {"id":"tianjin","name":"Tianjin","country":"CN","country_name":"China","lat":39.3434,"lon":117.3616,"population":15596000,"metro_population":17000000,"is_capital":false,"is_major_target":true,"has_military_base":false,"military_type":null,"nuclear_target_priority":2,"region":"China"},
  {"id":"nanjing","name":"Nanjing","country":"CN","country_name":"China","lat":32.0603,"lon":118.7969,"population":8505500,"metro_population":10000000,"is_capital":false,"is_major_target":false,"has_military_base":false,"military_type":null,"nuclear_target_priority":3,"region":"China"},
  {"id":"harbin","name":"Harbin","country":"CN","country_name":"China","lat":45.8038,"lon":126.5349,"population":5878939,"metro_population":10000000,"is_capital":false,"is_major_target":false,"has_military_base":false,"military_type":null,"nuclear_target_priority":3,"region":"China"},
  {"id":"qingdao","name":"Qingdao","country":"CN","country_name":"China","lat":36.0671,"lon":120.3826,"population":9462000,"metro_population":10000000,"is_capital":false,"is_major_target":true,"has_military_base":true,"military_type":"submarine_base","nuclear_target_priority":1,"region":"China"},
  {"id":"shenyang","name":"Shenyang","country":"CN","country_name":"China","lat":41.8057,"lon":123.4315,"population":6921000,"metro_population":8000000,"is_capital":false,"is_major_target":false,"has_military_base":true,"military_type":"air_base","nuclear_target_priority":2,"region":"China"},
  {"id":"hangzhou","name":"Hangzhou","country":"CN","country_name":"China","lat":30.2741,"lon":120.1551,"population":11936010,"metro_population":12000000,"is_capital":false,"is_major_target":false,"has_military_base":false,"military_type":null,"nuclear_target_priority":3,"region":"China"},
  {"id":"lhasa","name":"Lhasa","country":"CN","country_name":"China","lat":29.6520,"lon":91.1721,"population":375000,"metro_population":null,"is_capital":false,"is_major_target":false,"has_military_base":true,"military_type":"air_base","nuclear_target_priority":3,"region":"China"},
  {"id":"tokyo","name":"Tokyo","country":"JP","country_name":"Japan","lat":35.6762,"lon":139.6503,"population":13960000,"metro_population":37400068,"is_capital":true,"is_major_target":true,"has_military_base":true,"military_type":"air_base","nuclear_target_priority":1,"region":"East_Asia"},
  {"id":"osaka","name":"Osaka","country":"JP","country_name":"Japan","lat":34.6937,"lon":135.5023,"population":2691185,"metro_population":19303000,"is_capital":false,"is_major_target":true,"has_military_base":false,"military_type":null,"nuclear_target_priority":2,"region":"East_Asia"},
  {"id":"nagoya","name":"Nagoya","country":"JP","country_name":"Japan","lat":35.1815,"lon":136.9066,"population":2295638,"metro_population":9107000,"is_capital":false,"is_major_target":false,"has_military_base":false,"military_type":null,"nuclear_target_priority":3,"region":"East_Asia"},
  {"id":"sapporo","name":"Sapporo","country":"JP","country_name":"Japan","lat":43.0618,"lon":141.3545,"population":1973395,"metro_population":2570000,"is_capital":false,"is_major_target":false,"has_military_base":false,"military_type":null,"nuclear_target_priority":3,"region":"East_Asia"},
  {"id":"yokosuka","name":"Yokosuka Naval Base","country":"JP","country_name":"Japan","lat":35.2833,"lon":139.6667,"population":400000,"metro_population":null,"is_capital":false,"is_major_target":true,"has_military_base":true,"military_type":"submarine_base","nuclear_target_priority":1,"region":"East_Asia"},
  {"id":"seoul","name":"Seoul","country":"KR","country_name":"South Korea","lat":37.5665,"lon":126.9780,"population":9776000,"metro_population":25514342,"is_capital":true,"is_major_target":true,"has_military_base":true,"military_type":"command","nuclear_target_priority":1,"region":"East_Asia"},
  {"id":"busan","name":"Busan","country":"KR","country_name":"South Korea","lat":35.1796,"lon":129.0756,"population":3448737,"metro_population":4600000,"is_capital":false,"is_major_target":true,"has_military_base":true,"military_type":"air_base","nuclear_target_priority":2,"region":"East_Asia"},
  {"id":"incheon","name":"Incheon","country":"KR","country_name":"South Korea","lat":37.4563,"lon":126.7052,"population":2957026,"metro_population":5000000,"is_capital":false,"is_major_target":false,"has_military_base":true,"military_type":"air_base","nuclear_target_priority":2,"region":"East_Asia"},
  {"id":"pyongyang","name":"Pyongyang","country":"KP","country_name":"North Korea","lat":39.0392,"lon":125.7625,"population":3255288,"metro_population":3500000,"is_capital":true,"is_major_target":true,"has_military_base":true,"military_type":"command","nuclear_target_priority":1,"region":"East_Asia"},
  {"id":"guam","name":"Andersen AFB Guam","country":"GU","country_name":"Guam (US Territory)","lat":13.5831,"lon":144.9360,"population":165718,"metro_population":null,"is_capital":false,"is_major_target":true,"has_military_base":true,"military_type":"air_base","nuclear_target_priority":1,"region":"Pacific"},
  {"id":"honolulu","name":"Honolulu (Pearl Harbor)","country":"US","country_name":"United States","lat":21.3069,"lon":-157.8583,"population":345064,"metro_population":1000168,"is_capital":false,"is_major_target":true,"has_military_base":true,"military_type":"submarine_base","nuclear_target_priority":1,"region":"Pacific"},
  {"id":"london","name":"London","country":"GB","country_name":"United Kingdom","lat":51.5074,"lon":-0.1278,"population":8982000,"metro_population":14800000,"is_capital":true,"is_major_target":true,"has_military_base":true,"military_type":"command","nuclear_target_priority":1,"region":"Europe"},
  {"id":"birmingham","name":"Birmingham","country":"GB","country_name":"United Kingdom","lat":52.4862,"lon":-1.8904,"population":1141374,"metro_population":4336000,"is_capital":false,"is_major_target":false,"has_military_base":false,"military_type":null,"nuclear_target_priority":3,"region":"Europe"},
  {"id":"manchester","name":"Manchester","country":"GB","country_name":"United Kingdom","lat":53.4808,"lon":-2.2426,"population":553230,"metro_population":2553000,"is_capital":false,"is_major_target":false,"has_military_base":false,"military_type":null,"nuclear_target_priority":3,"region":"Europe"},
  {"id":"glasgow","name":"Glasgow","country":"GB","country_name":"United Kingdom","lat":55.8642,"lon":-4.2518,"population":635640,"metro_population":1100000,"is_capital":false,"is_major_target":true,"has_military_base":true,"military_type":"submarine_base","nuclear_target_priority":1,"region":"Europe"},
  {"id":"faslane","name":"HMNB Clyde (Faslane)","country":"GB","country_name":"United Kingdom","lat":56.0750,"lon":-4.8050,"population":6500,"metro_population":null,"is_capital":false,"is_major_target":true,"has_military_base":true,"military_type":"submarine_base","nuclear_target_priority":1,"region":"Europe"},
  {"id":"paris","name":"Paris","country":"FR","country_name":"France","lat":48.8566,"lon":2.3522,"population":2161000,"metro_population":12262544,"is_capital":true,"is_major_target":true,"has_military_base":true,"military_type":"command","nuclear_target_priority":1,"region":"Europe"},
  {"id":"marseille","name":"Marseille","country":"FR","country_name":"France","lat":43.2965,"lon":5.3698,"population":869815,"metro_population":1760000,"is_capital":false,"is_major_target":false,"has_military_base":true,"military_type":"submarine_base","nuclear_target_priority":2,"region":"Europe"},
  {"id":"lyon","name":"Lyon","country":"FR","country_name":"France","lat":45.7640,"lon":4.8357,"population":522969,"metro_population":2170000,"is_capital":false,"is_major_target":false,"has_military_base":false,"military_type":null,"nuclear_target_priority":3,"region":"Europe"},
  {"id":"ile_longue","name":"Île Longue SSBN Base","country":"FR","country_name":"France","lat":48.3144,"lon":-4.4131,"population":1000,"metro_population":null,"is_capital":false,"is_major_target":true,"has_military_base":true,"military_type":"submarine_base","nuclear_target_priority":1,"region":"Europe"},
  {"id":"berlin","name":"Berlin","country":"DE","country_name":"Germany","lat":52.5200,"lon":13.4050,"population":3769495,"metro_population":6000000,"is_capital":true,"is_major_target":true,"has_military_base":true,"military_type":"command","nuclear_target_priority":1,"region":"Europe"},
  {"id":"hamburg","name":"Hamburg","country":"DE","country_name":"Germany","lat":53.5753,"lon":10.0153,"population":1899160,"metro_population":5300000,"is_capital":false,"is_major_target":false,"has_military_base":false,"military_type":null,"nuclear_target_priority":3,"region":"Europe"},
  {"id":"munich","name":"Munich","country":"DE","country_name":"Germany","lat":48.1351,"lon":11.5820,"population":1488202,"metro_population":2900000,"is_capital":false,"is_major_target":false,"has_military_base":false,"military_type":null,"nuclear_target_priority":3,"region":"Europe"},
  {"id":"buchel_afb","name":"Büchel Air Base (B61-12)","country":"DE","country_name":"Germany","lat":50.1733,"lon":7.0639,"population":500,"metro_population":null,"is_capital":false,"is_major_target":true,"has_military_base":true,"military_type":"air_base","nuclear_target_priority":1,"region":"Europe"},
  {"id":"warsaw","name":"Warsaw","country":"PL","country_name":"Poland","lat":52.2297,"lon":21.0122,"population":1793579,"metro_population":3000000,"is_capital":true,"is_major_target":true,"has_military_base":false,"military_type":null,"nuclear_target_priority":1,"region":"Europe"},
  {"id":"brussels","name":"Brussels","country":"BE","country_name":"Belgium","lat":50.8503,"lon":4.3517,"population":1218255,"metro_population":2100000,"is_capital":true,"is_major_target":true,"has_military_base":true,"military_type":"command","nuclear_target_priority":1,"region":"Europe"},
  {"id":"nato_hq","name":"NATO HQ Brussels","country":"BE","country_name":"Belgium","lat":50.8795,"lon":4.4279,"population":500,"metro_population":null,"is_capital":false,"is_major_target":true,"has_military_base":true,"military_type":"command","nuclear_target_priority":1,"region":"Europe"},
  {"id":"amsterdam","name":"Amsterdam","country":"NL","country_name":"Netherlands","lat":52.3676,"lon":4.9041,"population":921402,"metro_population":2480000,"is_capital":true,"is_major_target":false,"has_military_base":false,"military_type":null,"nuclear_target_priority":2,"region":"Europe"},
  {"id":"volkel_afb","name":"Volkel Air Base (B61-12)","country":"NL","country_name":"Netherlands","lat":51.6561,"lon":5.7064,"population":500,"metro_population":null,"is_capital":false,"is_major_target":true,"has_military_base":true,"military_type":"air_base","nuclear_target_priority":1,"region":"Europe"},
  {"id":"rome","name":"Rome","country":"IT","country_name":"Italy","lat":41.9028,"lon":12.4964,"population":2860009,"metro_population":4342212,"is_capital":true,"is_major_target":true,"has_military_base":true,"military_type":"command","nuclear_target_priority":1,"region":"Europe"},
  {"id":"milan","name":"Milan","country":"IT","country_name":"Italy","lat":45.4654,"lon":9.1859,"population":1396059,"metro_population":5270000,"is_capital":false,"is_major_target":false,"has_military_base":false,"military_type":null,"nuclear_target_priority":3,"region":"Europe"},
  {"id":"aviano_afb","name":"Aviano AB (B61-12)","country":"IT","country_name":"Italy","lat":46.0319,"lon":12.5961,"population":9350,"metro_population":null,"is_capital":false,"is_major_target":true,"has_military_base":true,"military_type":"air_base","nuclear_target_priority":1,"region":"Europe"},
  {"id":"madrid","name":"Madrid","country":"ES","country_name":"Spain","lat":40.4168,"lon":-3.7038,"population":3305408,"metro_population":6680000,"is_capital":true,"is_major_target":true,"has_military_base":false,"military_type":null,"nuclear_target_priority":2,"region":"Europe"},
  {"id":"barcelona","name":"Barcelona","country":"ES","country_name":"Spain","lat":41.3851,"lon":2.1734,"population":1636762,"metro_population":5180000,"is_capital":false,"is_major_target":false,"has_military_base":false,"military_type":null,"nuclear_target_priority":3,"region":"Europe"},
  {"id":"stockholm","name":"Stockholm","country":"SE","country_name":"Sweden","lat":59.3293,"lon":18.0686,"population":978770,"metro_population":2280000,"is_capital":true,"is_major_target":false,"has_military_base":false,"military_type":null,"nuclear_target_priority":2,"region":"Europe"},
  {"id":"oslo","name":"Oslo","country":"NO","country_name":"Norway","lat":59.9139,"lon":10.7522,"population":693494,"metro_population":1060000,"is_capital":true,"is_major_target":false,"has_military_base":false,"military_type":null,"nuclear_target_priority":2,"region":"Europe"},
  {"id":"helsinki","name":"Helsinki","country":"FI","country_name":"Finland","lat":60.1699,"lon":24.9384,"population":658864,"metro_population":1150000,"is_capital":true,"is_major_target":false,"has_military_base":false,"military_type":null,"nuclear_target_priority":2,"region":"Europe"},
  {"id":"copenhagen","name":"Copenhagen","country":"DK","country_name":"Denmark","lat":55.6761,"lon":12.5683,"population":794128,"metro_population":1300000,"is_capital":true,"is_major_target":false,"has_military_base":false,"military_type":null,"nuclear_target_priority":2,"region":"Europe"},
  {"id":"vienna","name":"Vienna","country":"AT","country_name":"Austria","lat":48.2082,"lon":16.3738,"population":1897491,"metro_population":2800000,"is_capital":true,"is_major_target":false,"has_military_base":false,"military_type":null,"nuclear_target_priority":2,"region":"Europe"},
  {"id":"prague","name":"Prague","country":"CZ","country_name":"Czech Republic","lat":50.0755,"lon":14.4378,"population":1335084,"metro_population":2700000,"is_capital":true,"is_major_target":false,"has_military_base":false,"military_type":null,"nuclear_target_priority":2,"region":"Europe"},
  {"id":"bucharest","name":"Bucharest","country":"RO","country_name":"Romania","lat":44.4268,"lon":26.1025,"population":2161347,"metro_population":2272163,"is_capital":true,"is_major_target":false,"has_military_base":true,"military_type":"air_base","nuclear_target_priority":2,"region":"Europe"},
  {"id":"budapest","name":"Budapest","country":"HU","country_name":"Hungary","lat":47.4979,"lon":19.0402,"population":1752704,"metro_population":3300000,"is_capital":true,"is_major_target":false,"has_military_base":false,"military_type":null,"nuclear_target_priority":2,"region":"Europe"},
  {"id":"athens","name":"Athens","country":"GR","country_name":"Greece","lat":37.9838,"lon":23.7275,"population":664046,"metro_population":3685474,"is_capital":true,"is_major_target":false,"has_military_base":false,"military_type":null,"nuclear_target_priority":2,"region":"Europe"},
  {"id":"kyiv","name":"Kyiv","country":"UA","country_name":"Ukraine","lat":50.4501,"lon":30.5234,"population":2967360,"metro_population":3703100,"is_capital":true,"is_major_target":true,"has_military_base":false,"military_type":null,"nuclear_target_priority":1,"region":"Europe"},
  {"id":"zurich","name":"Zurich","country":"CH","country_name":"Switzerland","lat":47.3769,"lon":8.5417,"population":415215,"metro_population":1370000,"is_capital":false,"is_major_target":false,"has_military_base":false,"military_type":null,"nuclear_target_priority":3,"region":"Europe"},
  {"id":"ankara","name":"Ankara","country":"TR","country_name":"Turkey","lat":39.9208,"lon":32.8541,"population":5700500,"metro_population":6000000,"is_capital":true,"is_major_target":true,"has_military_base":true,"military_type":"command","nuclear_target_priority":1,"region":"Middle_East"},
  {"id":"istanbul","name":"Istanbul","country":"TR","country_name":"Turkey","lat":41.0082,"lon":28.9784,"population":15462452,"metro_population":15460000,"is_capital":false,"is_major_target":true,"has_military_base":false,"military_type":null,"nuclear_target_priority":1,"region":"Middle_East"},
  {"id":"incirlik_afb","name":"Incirlik Air Base (B61-12)","country":"TR","country_name":"Turkey","lat":37.0021,"lon":35.4258,"population":5000,"metro_population":null,"is_capital":false,"is_major_target":true,"has_military_base":true,"military_type":"air_base","nuclear_target_priority":1,"region":"Middle_East"},
  {"id":"tehran","name":"Tehran","country":"IR","country_name":"Iran","lat":35.6892,"lon":51.3890,"population":9259009,"metro_population":15800000,"is_capital":true,"is_major_target":true,"has_military_base":false,"military_type":null,"nuclear_target_priority":1,"region":"Middle_East"},
  {"id":"baghdad","name":"Baghdad","country":"IQ","country_name":"Iraq","lat":33.3152,"lon":44.3661,"population":7216040,"metro_population":8126755,"is_capital":true,"is_major_target":true,"has_military_base":false,"military_type":null,"nuclear_target_priority":2,"region":"Middle_East"},
  {"id":"riyadh","name":"Riyadh","country":"SA","country_name":"Saudi Arabia","lat":24.6877,"lon":46.7219,"population":7676654,"metro_population":7800000,"is_capital":true,"is_major_target":true,"has_military_base":false,"military_type":null,"nuclear_target_priority":2,"region":"Middle_East"},
  {"id":"dubai","name":"Dubai","country":"AE","country_name":"UAE","lat":25.2048,"lon":55.2708,"population":3331420,"metro_population":3400000,"is_capital":false,"is_major_target":true,"has_military_base":false,"military_type":null,"nuclear_target_priority":2,"region":"Middle_East"},
  {"id":"tel_aviv","name":"Tel Aviv","country":"IL","country_name":"Israel","lat":32.0853,"lon":34.7818,"population":460613,"metro_population":3854000,"is_capital":false,"is_major_target":true,"has_military_base":false,"military_type":null,"nuclear_target_priority":1,"region":"Middle_East"},
  {"id":"jerusalem","name":"Jerusalem","country":"IL","country_name":"Israel","lat":31.7683,"lon":35.2137,"population":936425,"metro_population":1000000,"is_capital":true,"is_major_target":true,"has_military_base":false,"military_type":null,"nuclear_target_priority":1,"region":"Middle_East"},
  {"id":"dimona","name":"Dimona Nuclear Complex","country":"IL","country_name":"Israel","lat":31.0822,"lon":35.1510,"population":33600,"metro_population":null,"is_capital":false,"is_major_target":true,"has_military_base":true,"military_type":"command","nuclear_target_priority":1,"region":"Middle_East"},
  {"id":"cairo","name":"Cairo","country":"EG","country_name":"Egypt","lat":30.0444,"lon":31.2357,"population":10078000,"metro_population":21323000,"is_capital":true,"is_major_target":true,"has_military_base":false,"military_type":null,"nuclear_target_priority":2,"region":"Africa"},
  {"id":"lagos","name":"Lagos","country":"NG","country_name":"Nigeria","lat":6.5244,"lon":3.3792,"population":14862111,"metro_population":21000000,"is_capital":false,"is_major_target":true,"has_military_base":false,"military_type":null,"nuclear_target_priority":3,"region":"Africa"},
  {"id":"kinshasa","name":"Kinshasa","country":"CD","country_name":"DR Congo","lat":-4.4419,"lon":15.2663,"population":15628085,"metro_population":16000000,"is_capital":true,"is_major_target":false,"has_military_base":false,"military_type":null,"nuclear_target_priority":3,"region":"Africa"},
  {"id":"johannesburg","name":"Johannesburg","country":"ZA","country_name":"South Africa","lat":-26.2041,"lon":28.0473,"population":5635127,"metro_population":9750000,"is_capital":false,"is_major_target":true,"has_military_base":false,"military_type":null,"nuclear_target_priority":3,"region":"Africa"},
  {"id":"nairobi","name":"Nairobi","country":"KE","country_name":"Kenya","lat":-1.2921,"lon":36.8219,"population":4397073,"metro_population":5000000,"is_capital":true,"is_major_target":false,"has_military_base":false,"military_type":null,"nuclear_target_priority":3,"region":"Africa"},
  {"id":"addis_ababa","name":"Addis Ababa","country":"ET","country_name":"Ethiopia","lat":9.0320,"lon":38.7469,"population":3352000,"metro_population":4000000,"is_capital":true,"is_major_target":false,"has_military_base":false,"military_type":null,"nuclear_target_priority":3,"region":"Africa"},
  {"id":"new_delhi","name":"New Delhi","country":"IN","country_name":"India","lat":28.6139,"lon":77.2090,"population":32941000,"metro_population":32941000,"is_capital":true,"is_major_target":true,"has_military_base":true,"military_type":"command","nuclear_target_priority":1,"region":"South_Asia"},
  {"id":"mumbai","name":"Mumbai","country":"IN","country_name":"India","lat":19.0760,"lon":72.8777,"population":20667656,"metro_population":21042538,"is_capital":false,"is_major_target":true,"has_military_base":false,"military_type":null,"nuclear_target_priority":1,"region":"South_Asia"},
  {"id":"kolkata","name":"Kolkata","country":"IN","country_name":"India","lat":22.5726,"lon":88.3639,"population":14974073,"metro_population":14974073,"is_capital":false,"is_major_target":true,"has_military_base":false,"military_type":null,"nuclear_target_priority":2,"region":"South_Asia"},
  {"id":"bangalore","name":"Bangalore","country":"IN","country_name":"India","lat":12.9716,"lon":77.5946,"population":12764935,"metro_population":13000000,"is_capital":false,"is_major_target":true,"has_military_base":true,"military_type":"air_base","nuclear_target_priority":2,"region":"South_Asia"},
  {"id":"chennai","name":"Chennai","country":"IN","country_name":"India","lat":13.0827,"lon":80.2707,"population":10971108,"metro_population":11500000,"is_capital":false,"is_major_target":true,"has_military_base":false,"military_type":null,"nuclear_target_priority":2,"region":"South_Asia"},
  {"id":"hyderabad","name":"Hyderabad (India)","country":"IN","country_name":"India","lat":17.3850,"lon":78.4867,"population":9746673,"metro_population":10500000,"is_capital":false,"is_major_target":false,"has_military_base":false,"military_type":null,"nuclear_target_priority":3,"region":"South_Asia"},
  {"id":"pune","name":"Pune","country":"IN","country_name":"India","lat":18.5204,"lon":73.8567,"population":7242000,"metro_population":7400000,"is_capital":false,"is_major_target":false,"has_military_base":true,"military_type":"command","nuclear_target_priority":2,"region":"South_Asia"},
  {"id":"karachi","name":"Karachi","country":"PK","country_name":"Pakistan","lat":24.8607,"lon":67.0011,"population":16051521,"metro_population":21000000,"is_capital":false,"is_major_target":true,"has_military_base":false,"military_type":null,"nuclear_target_priority":1,"region":"South_Asia"},
  {"id":"lahore","name":"Lahore","country":"PK","country_name":"Pakistan","lat":31.5804,"lon":74.3587,"population":13095000,"metro_population":14900000,"is_capital":false,"is_major_target":true,"has_military_base":false,"military_type":null,"nuclear_target_priority":1,"region":"South_Asia"},
  {"id":"islamabad","name":"Islamabad","country":"PK","country_name":"Pakistan","lat":33.6844,"lon":73.0479,"population":2006572,"metro_population":4500000,"is_capital":true,"is_major_target":true,"has_military_base":true,"military_type":"command","nuclear_target_priority":1,"region":"South_Asia"},
  {"id":"rawalpindi","name":"Rawalpindi (GHQ Pakistan)","country":"PK","country_name":"Pakistan","lat":33.5651,"lon":73.0169,"population":2094000,"metro_population":null,"is_capital":false,"is_major_target":true,"has_military_base":true,"military_type":"command","nuclear_target_priority":1,"region":"South_Asia"},
  {"id":"dhaka","name":"Dhaka","country":"BD","country_name":"Bangladesh","lat":23.8103,"lon":90.4125,"population":23209616,"metro_population":21000000,"is_capital":true,"is_major_target":false,"has_military_base":false,"military_type":null,"nuclear_target_priority":3,"region":"South_Asia"},
  {"id":"colombo","name":"Colombo","country":"LK","country_name":"Sri Lanka","lat":6.9271,"lon":79.8612,"population":752993,"metro_population":2000000,"is_capital":true,"is_major_target":false,"has_military_base":false,"military_type":null,"nuclear_target_priority":3,"region":"South_Asia"},
  {"id":"kabul","name":"Kabul","country":"AF","country_name":"Afghanistan","lat":34.5553,"lon":69.2075,"population":4601789,"metro_population":5000000,"is_capital":true,"is_major_target":false,"has_military_base":false,"military_type":null,"nuclear_target_priority":3,"region":"South_Asia"},
  {"id":"jakarta","name":"Jakarta","country":"ID","country_name":"Indonesia","lat":-6.2088,"lon":106.8456,"population":34540000,"metro_population":34000000,"is_capital":true,"is_major_target":false,"has_military_base":false,"military_type":null,"nuclear_target_priority":3,"region":"Southeast_Asia"},
  {"id":"manila","name":"Manila","country":"PH","country_name":"Philippines","lat":14.5995,"lon":120.9842,"population":1846513,"metro_population":14400000,"is_capital":true,"is_major_target":false,"has_military_base":false,"military_type":null,"nuclear_target_priority":3,"region":"Southeast_Asia"},
  {"id":"kuala_lumpur","name":"Kuala Lumpur","country":"MY","country_name":"Malaysia","lat":3.1390,"lon":101.6869,"population":1768000,"metro_population":7980000,"is_capital":true,"is_major_target":false,"has_military_base":false,"military_type":null,"nuclear_target_priority":3,"region":"Southeast_Asia"},
  {"id":"singapore","name":"Singapore","country":"SG","country_name":"Singapore","lat":1.3521,"lon":103.8198,"population":5850342,"metro_population":5850342,"is_capital":true,"is_major_target":true,"has_military_base":true,"military_type":"air_base","nuclear_target_priority":2,"region":"Southeast_Asia"},
  {"id":"bangkok","name":"Bangkok","country":"TH","country_name":"Thailand","lat":13.7563,"lon":100.5018,"population":10539415,"metro_population":15000000,"is_capital":true,"is_major_target":false,"has_military_base":false,"military_type":null,"nuclear_target_priority":3,"region":"Southeast_Asia"},
  {"id":"ho_chi_minh_city","name":"Ho Chi Minh City","country":"VN","country_name":"Vietnam","lat":10.8231,"lon":106.6297,"population":8993082,"metro_population":9300000,"is_capital":false,"is_major_target":false,"has_military_base":false,"military_type":null,"nuclear_target_priority":3,"region":"Southeast_Asia"},
  {"id":"hanoi","name":"Hanoi","country":"VN","country_name":"Vietnam","lat":21.0285,"lon":105.8542,"population":8246600,"metro_population":9000000,"is_capital":true,"is_major_target":false,"has_military_base":false,"military_type":null,"nuclear_target_priority":3,"region":"Southeast_Asia"},
  {"id":"yangon","name":"Yangon","country":"MM","country_name":"Myanmar","lat":16.8661,"lon":96.1951,"population":7360703,"metro_population":7400000,"is_capital":false,"is_major_target":false,"has_military_base":false,"military_type":null,"nuclear_target_priority":3,"region":"Southeast_Asia"},
  {"id":"phnom_penh","name":"Phnom Penh","country":"KH","country_name":"Cambodia","lat":11.5564,"lon":104.9282,"population":2281951,"metro_population":2500000,"is_capital":true,"is_major_target":false,"has_military_base":false,"military_type":null,"nuclear_target_priority":3,"region":"Southeast_Asia"},
  {"id":"taipei","name":"Taipei","country":"TW","country_name":"Taiwan","lat":25.0320,"lon":121.5654,"population":2646204,"metro_population":7000000,"is_capital":true,"is_major_target":true,"has_military_base":false,"military_type":null,"nuclear_target_priority":2,"region":"East_Asia"},
  {"id":"hong_kong","name":"Hong Kong","country":"CN","country_name":"China","lat":22.3193,"lon":114.1694,"population":7496981,"metro_population":7500000,"is_capital":false,"is_major_target":true,"has_military_base":false,"military_type":null,"nuclear_target_priority":2,"region":"China"},
  {"id":"sao_paulo","name":"São Paulo","country":"BR","country_name":"Brazil","lat":-23.5505,"lon":-46.6333,"population":12325232,"metro_population":21650000,"is_capital":false,"is_major_target":true,"has_military_base":false,"military_type":null,"nuclear_target_priority":3,"region":"South_America"},
  {"id":"rio_de_janeiro","name":"Rio de Janeiro","country":"BR","country_name":"Brazil","lat":-22.9068,"lon":-43.1729,"population":6747815,"metro_population":13000000,"is_capital":false,"is_major_target":false,"has_military_base":false,"military_type":null,"nuclear_target_priority":3,"region":"South_America"},
  {"id":"brasilia","name":"Brasília","country":"BR","country_name":"Brazil","lat":-15.7975,"lon":-47.8919,"population":3055149,"metro_population":4500000,"is_capital":true,"is_major_target":false,"has_military_base":false,"military_type":null,"nuclear_target_priority":3,"region":"South_America"},
  {"id":"buenos_aires","name":"Buenos Aires","country":"AR","country_name":"Argentina","lat":-34.6037,"lon":-58.3816,"population":3075646,"metro_population":15180000,"is_capital":true,"is_major_target":false,"has_military_base":false,"military_type":null,"nuclear_target_priority":3,"region":"South_America"},
  {"id":"lima","name":"Lima","country":"PE","country_name":"Peru","lat":-12.0464,"lon":-77.0428,"population":10555432,"metro_population":11000000,"is_capital":true,"is_major_target":false,"has_military_base":false,"military_type":null,"nuclear_target_priority":3,"region":"South_America"},
  {"id":"bogota","name":"Bogotá","country":"CO","country_name":"Colombia","lat":4.7110,"lon":-74.0721,"population":8380801,"metro_population":11200000,"is_capital":true,"is_major_target":false,"has_military_base":false,"military_type":null,"nuclear_target_priority":3,"region":"South_America"},
  {"id":"santiago","name":"Santiago","country":"CL","country_name":"Chile","lat":-33.4489,"lon":-70.6693,"population":6158080,"metro_population":7000000,"is_capital":true,"is_major_target":false,"has_military_base":false,"military_type":null,"nuclear_target_priority":3,"region":"South_America"},
  {"id":"caracas","name":"Caracas","country":"VE","country_name":"Venezuela","lat":10.4806,"lon":-66.9036,"population":2900000,"metro_population":3200000,"is_capital":true,"is_major_target":false,"has_military_base":false,"military_type":null,"nuclear_target_priority":3,"region":"South_America"},
  {"id":"mexico_city","name":"Mexico City","country":"MX","country_name":"Mexico","lat":19.4326,"lon":-99.1332,"population":9209944,"metro_population":21671908,"is_capital":true,"is_major_target":true,"has_military_base":false,"military_type":null,"nuclear_target_priority":2,"region":"North_America"},
  {"id":"guadalajara","name":"Guadalajara","country":"MX","country_name":"Mexico","lat":20.6597,"lon":-103.3496,"population":1504064,"metro_population":5300000,"is_capital":false,"is_major_target":false,"has_military_base":false,"military_type":null,"nuclear_target_priority":3,"region":"North_America"},
  {"id":"toronto","name":"Toronto","country":"CA","country_name":"Canada","lat":43.6532,"lon":-79.3832,"population":2731571,"metro_population":6341935,"is_capital":false,"is_major_target":true,"has_military_base":false,"military_type":null,"nuclear_target_priority":2,"region":"North_America"},
  {"id":"ottawa","name":"Ottawa","country":"CA","country_name":"Canada","lat":45.4215,"lon":-75.6972,"population":994837,"metro_population":1393086,"is_capital":true,"is_major_target":false,"has_military_base":false,"military_type":null,"nuclear_target_priority":2,"region":"North_America"},
  {"id":"montreal","name":"Montreal","country":"CA","country_name":"Canada","lat":45.5017,"lon":-73.5673,"population":1780000,"metro_population":4291809,"is_capital":false,"is_major_target":false,"has_military_base":false,"military_type":null,"nuclear_target_priority":3,"region":"North_America"},
  {"id":"vancouver","name":"Vancouver","country":"CA","country_name":"Canada","lat":49.2827,"lon":-123.1207,"population":675218,"metro_population":2463431,"is_capital":false,"is_major_target":false,"has_military_base":false,"military_type":null,"nuclear_target_priority":3,"region":"North_America"},
  {"id":"sydney","name":"Sydney","country":"AU","country_name":"Australia","lat":-33.8688,"lon":151.2093,"population":5312000,"metro_population":5312000,"is_capital":false,"is_major_target":true,"has_military_base":false,"military_type":null,"nuclear_target_priority":3,"region":"Pacific"},
  {"id":"melbourne","name":"Melbourne","country":"AU","country_name":"Australia","lat":-37.8136,"lon":144.9631,"population":4936000,"metro_population":5078193,"is_capital":false,"is_major_target":false,"has_military_base":false,"military_type":null,"nuclear_target_priority":3,"region":"Pacific"},
  {"id":"canberra","name":"Canberra","country":"AU","country_name":"Australia","lat":-35.2809,"lon":149.1300,"population":462213,"metro_population":475000,"is_capital":true,"is_major_target":false,"has_military_base":true,"military_type":"command","nuclear_target_priority":3,"region":"Pacific"},
  {"id":"pine_gap","name":"Pine Gap (US Intelligence)","country":"AU","country_name":"Australia","lat":-23.7992,"lon":133.7374,"population":500,"metro_population":null,"is_capital":false,"is_major_target":true,"has_military_base":true,"military_type":"command","nuclear_target_priority":1,"region":"Pacific"},
  {"id":"wellington","name":"Wellington","country":"NZ","country_name":"New Zealand","lat":-41.2866,"lon":174.7756,"population":215800,"metro_population":440000,"is_capital":true,"is_major_target":false,"has_military_base":false,"military_type":null,"nuclear_target_priority":3,"region":"Pacific"},
  {"id":"auckland","name":"Auckland","country":"NZ","country_name":"New Zealand","lat":-36.8485,"lon":174.7633,"population":1695200,"metro_population":1700000,"is_capital":false,"is_major_target":false,"has_military_base":false,"military_type":null,"nuclear_target_priority":3,"region":"Pacific"},
  {"id":"minsk","name":"Minsk","country":"BY","country_name":"Belarus","lat":53.9045,"lon":27.5615,"population":2009786,"metro_population":2200000,"is_capital":true,"is_major_target":true,"has_military_base":false,"military_type":null,"nuclear_target_priority":2,"region":"Europe"},
  {"id":"almaty","name":"Almaty","country":"KZ","country_name":"Kazakhstan","lat":43.2220,"lon":76.8512,"population":2000900,"metro_population":2200000,"is_capital":false,"is_major_target":false,"has_military_base":false,"military_type":null,"nuclear_target_priority":3,"region":"Central_Asia"},
  {"id":"nur_sultan","name":"Astana","country":"KZ","country_name":"Kazakhstan","lat":51.1801,"lon":71.4460,"population":1078362,"metro_population":1200000,"is_capital":true,"is_major_target":false,"has_military_base":false,"military_type":null,"nuclear_target_priority":3,"region":"Central_Asia"},
  {"id":"baikonur","name":"Baikonur Cosmodrome","country":"KZ","country_name":"Kazakhstan","lat":45.9654,"lon":63.3050,"population":70000,"metro_population":null,"is_capital":false,"is_major_target":true,"has_military_base":true,"military_type":"command","nuclear_target_priority":2,"region":"Central_Asia"},
  {"id":"tashkent","name":"Tashkent","country":"UZ","country_name":"Uzbekistan","lat":41.2995,"lon":69.2401,"population":2571668,"metro_population":3000000,"is_capital":true,"is_major_target":false,"has_military_base":false,"military_type":null,"nuclear_target_priority":3,"region":"Central_Asia"},
  {"id":"lisbon","name":"Lisbon","country":"PT","country_name":"Portugal","lat":38.7169,"lon":-9.1395,"population":545796,"metro_population":2870000,"is_capital":true,"is_major_target":false,"has_military_base":true,"military_type":"air_base","nuclear_target_priority":2,"region":"Europe"},
  {"id":"dublin","name":"Dublin","country":"IE","country_name":"Ireland","lat":53.3498,"lon":-6.2603,"population":1388842,"metro_population":1904806,"is_capital":true,"is_major_target":false,"has_military_base":false,"military_type":null,"nuclear_target_priority":3,"region":"Europe"},
  {"id":"belgrade","name":"Belgrade","country":"RS","country_name":"Serbia","lat":44.8176,"lon":20.4569,"population":1694000,"metro_population":1900000,"is_capital":true,"is_major_target":false,"has_military_base":false,"military_type":null,"nuclear_target_priority":3,"region":"Europe"},
  {"id":"sofia","name":"Sofia","country":"BG","country_name":"Bulgaria","lat":42.6977,"lon":23.3219,"population":1241675,"metro_population":1400000,"is_capital":true,"is_major_target":false,"has_military_base":false,"military_type":null,"nuclear_target_priority":3,"region":"Europe"},
  {"id":"vilnius","name":"Vilnius","country":"LT","country_name":"Lithuania","lat":54.6872,"lon":25.2797,"population":592588,"metro_population":800000,"is_capital":true,"is_major_target":false,"has_military_base":false,"military_type":null,"nuclear_target_priority":2,"region":"Europe"},
  {"id":"riga","name":"Riga","country":"LV","country_name":"Latvia","lat":56.9496,"lon":24.1052,"population":605802,"metro_population":700000,"is_capital":true,"is_major_target":false,"has_military_base":false,"military_type":null,"nuclear_target_priority":2,"region":"Europe"},
  {"id":"tallinn","name":"Tallinn","country":"EE","country_name":"Estonia","lat":59.4370,"lon":24.7536,"population":440694,"metro_population":500000,"is_capital":true,"is_major_target":false,"has_military_base":false,"military_type":null,"nuclear_target_priority":2,"region":"Europe"},
  {"id":"kaliningrad","name":"Kaliningrad","country":"RU","country_name":"Russia","lat":54.7065,"lon":20.5110,"population":468199,"metro_population":500000,"is_capital":false,"is_major_target":true,"has_military_base":true,"military_type":"ICBM_field","nuclear_target_priority":1,"region":"Europe"},
  {"id":"khabarovsk","name":"Khabarovsk","country":"RU","country_name":"Russia","lat":48.4827,"lon":135.0838,"population":616372,"metro_population":700000,"is_capital":false,"is_major_target":false,"has_military_base":true,"military_type":"air_base","nuclear_target_priority":2,"region":"Russia"},
  {"id":"murmansk","name":"Murmansk","country":"RU","country_name":"Russia","lat":68.9585,"lon":33.0827,"population":282173,"metro_population":350000,"is_capital":false,"is_major_target":true,"has_military_base":true,"military_type":"submarine_base","nuclear_target_priority":1,"region":"Russia"},
  {"id":"sevastopol","name":"Sevastopol","country":"UA","country_name":"Ukraine","lat":44.6054,"lon":33.5224,"population":443211,"metro_population":null,"is_capital":false,"is_major_target":true,"has_military_base":true,"military_type":"submarine_base","nuclear_target_priority":2,"region":"Europe"},
  {"id":"abadan","name":"Abadan (Natanz)","country":"IR","country_name":"Iran","lat":33.7258,"lon":51.7259,"population":100000,"metro_population":null,"is_capital":false,"is_major_target":true,"has_military_base":true,"military_type":"command","nuclear_target_priority":1,"region":"Middle_East"},
  {"id":"damascus","name":"Damascus","country":"SY","country_name":"Syria","lat":33.5138,"lon":36.2765,"population":2079000,"metro_population":2500000,"is_capital":true,"is_major_target":false,"has_military_base":false,"military_type":null,"nuclear_target_priority":3,"region":"Middle_East"},
  {"id":"amman","name":"Amman","country":"JO","country_name":"Jordan","lat":31.9454,"lon":35.9284,"population":4007526,"metro_population":4200000,"is_capital":true,"is_major_target":false,"has_military_base":false,"military_type":null,"nuclear_target_priority":3,"region":"Middle_East"},
  {"id":"beirut","name":"Beirut","country":"LB","country_name":"Lebanon","lat":33.8938,"lon":35.5018,"population":2200000,"metro_population":2500000,"is_capital":true,"is_major_target":false,"has_military_base":false,"military_type":null,"nuclear_target_priority":3,"region":"Middle_East"},
  {"id":"doha","name":"Doha","country":"QA","country_name":"Qatar","lat":25.2854,"lon":51.5310,"population":956460,"metro_population":1000000,"is_capital":true,"is_major_target":true,"has_military_base":true,"military_type":"command","nuclear_target_priority":2,"region":"Middle_East"},
  {"id":"al_udeid","name":"Al Udeid Air Base","country":"QA","country_name":"Qatar","lat":25.1173,"lon":51.3150,"population":10000,"metro_population":null,"is_capital":false,"is_major_target":true,"has_military_base":true,"military_type":"command","nuclear_target_priority":1,"region":"Middle_East"},
  {"id":"manama","name":"Manama","country":"BH","country_name":"Bahrain","lat":26.2285,"lon":50.5860,"population":395000,"metro_population":600000,"is_capital":true,"is_major_target":true,"has_military_base":true,"military_type":"command","nuclear_target_priority":2,"region":"Middle_East"},
  {"id":"abu_dhabi","name":"Abu Dhabi","country":"AE","country_name":"UAE","lat":24.4539,"lon":54.3773,"population":1483000,"metro_population":1600000,"is_capital":true,"is_major_target":false,"has_military_base":false,"military_type":null,"nuclear_target_priority":3,"region":"Middle_East"},
  {"id":"muscat","name":"Muscat","country":"OM","country_name":"Oman","lat":23.5880,"lon":58.3829,"population":1421409,"metro_population":1500000,"is_capital":true,"is_major_target":false,"has_military_base":false,"military_type":null,"nuclear_target_priority":3,"region":"Middle_East"},
  {"id":"algiers","name":"Algiers","country":"DZ","country_name":"Algeria","lat":36.7538,"lon":3.0588,"population":3415811,"metro_population":4600000,"is_capital":true,"is_major_target":false,"has_military_base":false,"military_type":null,"nuclear_target_priority":3,"region":"Africa"},
  {"id":"tunis","name":"Tunis","country":"TN","country_name":"Tunisia","lat":36.8190,"lon":10.1658,"population":693210,"metro_population":2700000,"is_capital":true,"is_major_target":false,"has_military_base":false,"military_type":null,"nuclear_target_priority":3,"region":"Africa"},
  {"id":"rabat","name":"Rabat","country":"MA","country_name":"Morocco","lat":33.9716,"lon":-6.8498,"population":577827,"metro_population":1200000,"is_capital":true,"is_major_target":false,"has_military_base":false,"military_type":null,"nuclear_target_priority":3,"region":"Africa"},
  {"id":"casablanca","name":"Casablanca","country":"MA","country_name":"Morocco","lat":33.5731,"lon":-7.5898,"population":3752000,"metro_population":4270750,"is_capital":false,"is_major_target":false,"has_military_base":false,"military_type":null,"nuclear_target_priority":3,"region":"Africa"},
  {"id":"accra","name":"Accra","country":"GH","country_name":"Ghana","lat":5.6037,"lon":-0.1870,"population":2388000,"metro_population":2700000,"is_capital":true,"is_major_target":false,"has_military_base":false,"military_type":null,"nuclear_target_priority":3,"region":"Africa"},
  {"id":"dakar","name":"Dakar","country":"SN","country_name":"Senegal","lat":14.7167,"lon":-17.4677,"population":3137196,"metro_population":3300000,"is_capital":true,"is_major_target":false,"has_military_base":false,"military_type":null,"nuclear_target_priority":3,"region":"Africa"},
  {"id":"pretoria","name":"Pretoria","country":"ZA","country_name":"South Africa","lat":-25.7479,"lon":28.2293,"population":741651,"metro_population":3300000,"is_capital":true,"is_major_target":false,"has_military_base":false,"military_type":null,"nuclear_target_priority":3,"region":"Africa"},
  {"id":"cape_town","name":"Cape Town","country":"ZA","country_name":"South Africa","lat":-33.9249,"lon":18.4241,"population":4618000,"metro_population":4690000,"is_capital":false,"is_major_target":false,"has_military_base":false,"military_type":null,"nuclear_target_priority":3,"region":"Africa"},
  {"id":"kampala","name":"Kampala","country":"UG","country_name":"Uganda","lat":0.3476,"lon":32.5825,"population":3630504,"metro_population":3700000,"is_capital":true,"is_major_target":false,"has_military_base":false,"military_type":null,"nuclear_target_priority":3,"region":"Africa"},
  {"id":"dar_es_salaam","name":"Dar es Salaam","country":"TZ","country_name":"Tanzania","lat":-6.7924,"lon":39.2083,"population":7404689,"metro_population":7500000,"is_capital":false,"is_major_target":false,"has_military_base":false,"military_type":null,"nuclear_target_priority":3,"region":"Africa"},
  {"id":"khartoum","name":"Khartoum","country":"SD","country_name":"Sudan","lat":15.5007,"lon":32.5599,"population":5924505,"metro_population":6200000,"is_capital":true,"is_major_target":false,"has_military_base":false,"military_type":null,"nuclear_target_priority":3,"region":"Africa"},
  {"id":"luanda","name":"Luanda","country":"AO","country_name":"Angola","lat":-8.8390,"lon":13.2894,"population":8952496,"metro_population":9000000,"is_capital":true,"is_major_target":false,"has_military_base":false,"military_type":null,"nuclear_target_priority":3,"region":"Africa"},
  {"id":"maputo","name":"Maputo","country":"MZ","country_name":"Mozambique","lat":-25.9686,"lon":32.5699,"population":1766184,"metro_population":1900000,"is_capital":true,"is_major_target":false,"has_military_base":false,"military_type":null,"nuclear_target_priority":3,"region":"Africa"},
  {"id":"antananarivo","name":"Antananarivo","country":"MG","country_name":"Madagascar","lat":-18.9137,"lon":47.5361,"population":3058243,"metro_population":3100000,"is_capital":true,"is_major_target":false,"has_military_base":false,"military_type":null,"nuclear_target_priority":3,"region":"Africa"},
  {"id":"havana","name":"Havana","country":"CU","country_name":"Cuba","lat":23.1136,"lon":-82.3666,"population":2134459,"metro_population":2200000,"is_capital":true,"is_major_target":false,"has_military_base":false,"military_type":null,"nuclear_target_priority":3,"region":"Caribbean"},
  {"id":"panama_city","name":"Panama City","country":"PA","country_name":"Panama","lat":8.9943,"lon":-79.5188,"population":880691,"metro_population":1400000,"is_capital":true,"is_major_target":false,"has_military_base":false,"military_type":null,"nuclear_target_priority":3,"region":"Caribbean"},
  {"id":"san_jose_cr","name":"San José","country":"CR","country_name":"Costa Rica","lat":9.9281,"lon":-84.0907,"population":340000,"metro_population":1400000,"is_capital":true,"is_major_target":false,"has_military_base":false,"military_type":null,"nuclear_target_priority":3,"region":"Caribbean"},
  {"id":"reykjavik","name":"Reykjavik","country":"IS","country_name":"Iceland","lat":64.1355,"lon":-21.8954,"population":131136,"metro_population":234000,"is_capital":true,"is_major_target":false,"has_military_base":false,"military_type":null,"nuclear_target_priority":3,"region":"Europe"},
  {"id":"keflavik","name":"Keflavik (NATO base)","country":"IS","country_name":"Iceland","lat":63.9850,"lon":-22.6056,"population":15000,"metro_population":null,"is_capital":false,"is_major_target":true,"has_military_base":true,"military_type":"air_base","nuclear_target_priority":2,"region":"Europe"},
  {"id":"nuuk","name":"Nuuk","country":"GL","country_name":"Greenland","lat":64.1835,"lon":-51.7216,"population":57792,"metro_population":60000,"is_capital":true,"is_major_target":false,"has_military_base":false,"military_type":null,"nuclear_target_priority":3,"region":"North_America"},
  {"id":"thule_afb","name":"Thule Air Base (Greenland)","country":"GL","country_name":"Greenland (US base)","lat":76.5310,"lon":-68.7033,"population":600,"metro_population":null,"is_capital":false,"is_major_target":true,"has_military_base":true,"military_type":"command","nuclear_target_priority":1,"region":"North_America"},
  {"id":"diego_garcia","name":"Diego Garcia (BIOT)","country":"IO","country_name":"British Indian Ocean Territory","lat":-7.3417,"lon":72.4236,"population":3000,"metro_population":null,"is_capital":false,"is_major_target":true,"has_military_base":true,"military_type":"air_base","nuclear_target_priority":1,"region":"Indian_Ocean"},
  {"id":"colombo_port","name":"Colombo","country":"LK","country_name":"Sri Lanka","lat":6.9271,"lon":79.8612,"population":752993,"metro_population":2000000,"is_capital":true,"is_major_target":false,"has_military_base":false,"military_type":null,"nuclear_target_priority":3,"region":"South_Asia"},
  {"id":"kathmandu","name":"Kathmandu","country":"NP","country_name":"Nepal","lat":27.7172,"lon":85.3240,"population":1442271,"metro_population":2700000,"is_capital":true,"is_major_target":false,"has_military_base":false,"military_type":null,"nuclear_target_priority":3,"region":"South_Asia"},
  {"id":"thimphu","name":"Thimphu","country":"BT","country_name":"Bhutan","lat":27.4712,"lon":89.6339,"population":115000,"metro_population":null,"is_capital":true,"is_major_target":false,"has_military_base":false,"military_type":null,"nuclear_target_priority":3,"region":"South_Asia"},
  {"id":"vientiane","name":"Vientiane","country":"LA","country_name":"Laos","lat":17.9757,"lon":102.6331,"population":948477,"metro_population":1100000,"is_capital":true,"is_major_target":false,"has_military_base":false,"military_type":null,"nuclear_target_priority":3,"region":"Southeast_Asia"},
  {"id":"naypyidaw","name":"Naypyidaw","country":"MM","country_name":"Myanmar","lat":19.7633,"lon":96.0785,"population":1017587,"metro_population":null,"is_capital":true,"is_major_target":false,"has_military_base":false,"military_type":null,"nuclear_target_priority":3,"region":"Southeast_Asia"},
  {"id":"bandar_seri_begawan","name":"Bandar Seri Begawan","country":"BN","country_name":"Brunei","lat":4.9031,"lon":114.9398,"population":100700,"metro_population":null,"is_capital":true,"is_major_target":false,"has_military_base":false,"military_type":null,"nuclear_target_priority":3,"region":"Southeast_Asia"},
  {"id":"dili","name":"Dili","country":"TL","country_name":"Timor-Leste","lat":-8.5569,"lon":125.5788,"population":277279,"metro_population":null,"is_capital":true,"is_major_target":false,"has_military_base":false,"military_type":null,"nuclear_target_priority":3,"region":"Southeast_Asia"},
  {"id":"port_moresby","name":"Port Moresby","country":"PG","country_name":"Papua New Guinea","lat":-9.4438,"lon":147.1803,"population":383000,"metro_population":400000,"is_capital":true,"is_major_target":false,"has_military_base":false,"military_type":null,"nuclear_target_priority":3,"region":"Pacific"},
  {"id":"ulaanbaatar","name":"Ulaanbaatar","country":"MN","country_name":"Mongolia","lat":47.8864,"lon":106.9057,"population":1672436,"metro_population":1700000,"is_capital":true,"is_major_target":false,"has_military_base":false,"military_type":null,"nuclear_target_priority":3,"region":"East_Asia"},
  {"id":"bishkek","name":"Bishkek","country":"KG","country_name":"Kyrgyzstan","lat":42.8746,"lon":74.5698,"population":1074075,"metro_population":1100000,"is_capital":true,"is_major_target":false,"has_military_base":false,"military_type":null,"nuclear_target_priority":3,"region":"Central_Asia"},
  {"id":"dushanbe","name":"Dushanbe","country":"TJ","country_name":"Tajikistan","lat":38.5598,"lon":68.7738,"population":863400,"metro_population":900000,"is_capital":true,"is_major_target":false,"has_military_base":false,"military_type":null,"nuclear_target_priority":3,"region":"Central_Asia"},
  {"id":"ashgabat","name":"Ashgabat","country":"TM","country_name":"Turkmenistan","lat":37.9601,"lon":58.3261,"population":1031992,"metro_population":1100000,"is_capital":true,"is_major_target":false,"has_military_base":false,"military_type":null,"nuclear_target_priority":3,"region":"Central_Asia"},
  {"id":"baku","name":"Baku","country":"AZ","country_name":"Azerbaijan","lat":40.4093,"lon":49.8671,"population":2286200,"metro_population":3500000,"is_capital":true,"is_major_target":false,"has_military_base":false,"military_type":null,"nuclear_target_priority":3,"region":"Central_Asia"},
  {"id":"yerevan","name":"Yerevan","country":"AM","country_name":"Armenia","lat":40.1872,"lon":44.5152,"population":1084800,"metro_population":1200000,"is_capital":true,"is_major_target":false,"has_military_base":false,"military_type":null,"nuclear_target_priority":3,"region":"Central_Asia"},
  {"id":"tbilisi","name":"Tbilisi","country":"GE","country_name":"Georgia","lat":41.6938,"lon":44.8015,"population":1118035,"metro_population":1500000,"is_capital":true,"is_major_target":false,"has_military_base":false,"military_type":null,"nuclear_target_priority":3,"region":"Central_Asia"},
  {"id":"lubjana","name":"Ljubljana","country":"SI","country_name":"Slovenia","lat":46.0569,"lon":14.5058,"population":284355,"metro_population":500000,"is_capital":true,"is_major_target":false,"has_military_base":false,"military_type":null,"nuclear_target_priority":3,"region":"Europe"},
  {"id":"zagreb","name":"Zagreb","country":"HR","country_name":"Croatia","lat":45.8150,"lon":15.9819,"population":806341,"metro_population":1100000,"is_capital":true,"is_major_target":false,"has_military_base":false,"military_type":null,"nuclear_target_priority":3,"region":"Europe"},
  {"id":"sarajevo","name":"Sarajevo","country":"BA","country_name":"Bosnia & Herzegovina","lat":43.8563,"lon":18.4131,"population":302313,"metro_population":600000,"is_capital":true,"is_major_target":false,"has_military_base":false,"military_type":null,"nuclear_target_priority":3,"region":"Europe"},
  {"id":"podgorica","name":"Podgorica","country":"ME","country_name":"Montenegro","lat":42.4304,"lon":19.2594,"population":185937,"metro_population":null,"is_capital":true,"is_major_target":false,"has_military_base":false,"military_type":null,"nuclear_target_priority":3,"region":"Europe"},
  {"id":"tirana","name":"Tirana","country":"AL","country_name":"Albania","lat":41.3275,"lon":19.8187,"population":800000,"metro_population":900000,"is_capital":true,"is_major_target":false,"has_military_base":false,"military_type":null,"nuclear_target_priority":3,"region":"Europe"},
  {"id":"pristina","name":"Pristina","country":"XK","country_name":"Kosovo","lat":42.6629,"lon":21.1655,"population":198000,"metro_population":null,"is_capital":true,"is_major_target":false,"has_military_base":false,"military_type":null,"nuclear_target_priority":3,"region":"Europe"},
  {"id":"skopje","name":"Skopje","country":"MK","country_name":"North Macedonia","lat":42.0000,"lon":21.4333,"population":669000,"metro_population":700000,"is_capital":true,"is_major_target":false,"has_military_base":false,"military_type":null,"nuclear_target_priority":3,"region":"Europe"},
  {"id":"nicosia","name":"Nicosia","country":"CY","country_name":"Cyprus","lat":35.1856,"lon":33.3823,"population":269500,"metro_population":null,"is_capital":true,"is_major_target":false,"has_military_base":false,"military_type":null,"nuclear_target_priority":3,"region":"Middle_East"},
  {"id":"valletta","name":"Valletta","country":"MT","country_name":"Malta","lat":35.8997,"lon":14.5147,"population":6444,"metro_population":400000,"is_capital":true,"is_major_target":false,"has_military_base":false,"military_type":null,"nuclear_target_priority":3,"region":"Europe"},
  {"id":"bratislava","name":"Bratislava","country":"SK","country_name":"Slovakia","lat":48.1486,"lon":17.1077,"population":475503,"metro_population":700000,"is_capital":true,"is_major_target":false,"has_military_base":false,"military_type":null,"nuclear_target_priority":3,"region":"Europe"},
  {"id":"luxembourg_city","name":"Luxembourg City","country":"LU","country_name":"Luxembourg","lat":49.6116,"lon":6.1319,"population":136000,"metro_population":null,"is_capital":true,"is_major_target":false,"has_military_base":false,"military_type":null,"nuclear_target_priority":3,"region":"Europe"},
  {"id":"bern","name":"Bern","country":"CH","country_name":"Switzerland","lat":46.9481,"lon":7.4474,"population":133883,"metro_population":420000,"is_capital":true,"is_major_target":false,"has_military_base":false,"military_type":null,"nuclear_target_priority":3,"region":"Europe"},
  {"id":"vaduz","name":"Vaduz","country":"LI","country_name":"Liechtenstein","lat":47.1415,"lon":9.5215,"population":5696,"metro_population":null,"is_capital":true,"is_major_target":false,"has_military_base":false,"military_type":null,"nuclear_target_priority":3,"region":"Europe"},
  {"id":"andorra_la_vella","name":"Andorra la Vella","country":"AD","country_name":"Andorra","lat":42.5063,"lon":1.5218,"population":22886,"metro_population":null,"is_capital":true,"is_major_target":false,"has_military_base":false,"military_type":null,"nuclear_target_priority":3,"region":"Europe"},
  {"id":"monaco","name":"Monaco","country":"MC","country_name":"Monaco","lat":43.7333,"lon":7.4167,"population":39150,"metro_population":null,"is_capital":true,"is_major_target":false,"has_military_base":false,"military_type":null,"nuclear_target_priority":3,"region":"Europe"},
  {"id":"san_marino","name":"San Marino","country":"SM","country_name":"San Marino","lat":43.9424,"lon":12.4578,"population":34576,"metro_population":null,"is_capital":true,"is_major_target":false,"has_military_base":false,"military_type":null,"nuclear_target_priority":3,"region":"Europe"},
  {"id":"vatican","name":"Vatican City","country":"VA","country_name":"Vatican City","lat":41.9022,"lon":12.4534,"population":825,"metro_population":null,"is_capital":true,"is_major_target":false,"has_military_base":false,"military_type":null,"nuclear_target_priority":3,"region":"Europe"},
  {"id":"nay_pyi_taw","name":"Naypyidaw","country":"MM","country_name":"Myanmar","lat":19.7633,"lon":96.0785,"population":1017587,"metro_population":null,"is_capital":true,"is_major_target":false,"has_military_base":false,"military_type":null,"nuclear_target_priority":3,"region":"Southeast_Asia"},
  {"id":"islamabad_nuclear","name":"Khushab Nuclear Complex","country":"PK","country_name":"Pakistan","lat":32.2775,"lon":71.9839,"population":5000,"metro_population":null,"is_capital":false,"is_major_target":true,"has_military_base":true,"military_type":"command","nuclear_target_priority":1,"region":"South_Asia"},
  {"id":"fordow","name":"Fordow Enrichment Plant","country":"IR","country_name":"Iran","lat":34.8853,"lon":50.0167,"population":1000,"metro_population":null,"is_capital":false,"is_major_target":true,"has_military_base":true,"military_type":"command","nuclear_target_priority":1,"region":"Middle_East"},
  {"id":"natanz","name":"Natanz Nuclear Facility","country":"IR","country_name":"Iran","lat":33.7258,"lon":51.7259,"population":5000,"metro_population":null,"is_capital":false,"is_major_target":true,"has_military_base":true,"military_type":"command","nuclear_target_priority":1,"region":"Middle_East"},
  {"id":"isfahan","name":"Isfahan","country":"IR","country_name":"Iran","lat":32.6546,"lon":51.6680,"population":2220000,"metro_population":4000000,"is_capital":false,"is_major_target":true,"has_military_base":false,"military_type":null,"nuclear_target_priority":2,"region":"Middle_East"},
  {"id":"mashhad","name":"Mashhad","country":"IR","country_name":"Iran","lat":36.2972,"lon":59.6067,"population":3431867,"metro_population":3700000,"is_capital":false,"is_major_target":false,"has_military_base":false,"military_type":null,"nuclear_target_priority":3,"region":"Middle_East"},
  {"id":"tabriz","name":"Tabriz","country":"IR","country_name":"Iran","lat":38.0800,"lon":46.2919,"population":1737100,"metro_population":2000000,"is_capital":false,"is_major_target":false,"has_military_base":false,"military_type":null,"nuclear_target_priority":3,"region":"Middle_East"},
  {"id":"zhengzhou","name":"Zhengzhou","country":"CN","country_name":"China","lat":34.7466,"lon":113.6253,"population":10141000,"metro_population":12000000,"is_capital":false,"is_major_target":false,"has_military_base":false,"military_type":null,"nuclear_target_priority":3,"region":"China"},
  {"id":"kunming","name":"Kunming","country":"CN","country_name":"China","lat":25.0457,"lon":102.7097,"population":8100000,"metro_population":9000000,"is_capital":false,"is_major_target":false,"has_military_base":true,"military_type":"air_base","nuclear_target_priority":3,"region":"China"},
  {"id":"changsha","name":"Changsha","country":"CN","country_name":"China","lat":28.2278,"lon":112.9388,"population":8000069,"metro_population":8500000,"is_capital":false,"is_major_target":false,"has_military_base":false,"military_type":null,"nuclear_target_priority":3,"region":"China"},
  {"id":"suzhou","name":"Suzhou","country":"CN","country_name":"China","lat":31.2990,"lon":120.5853,"population":10720000,"metro_population":11000000,"is_capital":false,"is_major_target":false,"has_military_base":false,"military_type":null,"nuclear_target_priority":3,"region":"China"},
  {"id":"jinan","name":"Jinan","country":"CN","country_name":"China","lat":36.6512,"lon":117.1201,"population":7490000,"metro_population":8000000,"is_capital":false,"is_major_target":false,"has_military_base":false,"military_type":null,"nuclear_target_priority":3,"region":"China"},
  {"id":"dalian","name":"Dalian","country":"CN","country_name":"China","lat":38.9140,"lon":121.6147,"population":7480000,"metro_population":8000000,"is_capital":false,"is_major_target":true,"has_military_base":true,"military_type":"submarine_base","nuclear_target_priority":2,"region":"China"},
  {"id":"urumqi","name":"Urumqi","country":"CN","country_name":"China","lat":43.8256,"lon":87.6168,"population":3500000,"metro_population":4000000,"is_capital":false,"is_major_target":false,"has_military_base":true,"military_type":"air_base","nuclear_target_priority":2,"region":"China"},
  {"id":"lanzhou","name":"Lanzhou","country":"CN","country_name":"China","lat":36.0563,"lon":103.7922,"population":3800000,"metro_population":4000000,"is_capital":false,"is_major_target":true,"has_military_base":true,"military_type":"ICBM_field","nuclear_target_priority":2,"region":"China"},
  {"id":"yinchuan","name":"Yinchuan","country":"CN","country_name":"China","lat":38.4872,"lon":106.2309,"population":2300000,"metro_population":null,"is_capital":false,"is_major_target":true,"has_military_base":true,"military_type":"ICBM_field","nuclear_target_priority":1,"region":"China"},
  {"id":"kochi","name":"Kochi (India Navy)","country":"IN","country_name":"India","lat":9.9312,"lon":76.2673,"population":677381,"metro_population":2100000,"is_capital":false,"is_major_target":true,"has_military_base":true,"military_type":"submarine_base","nuclear_target_priority":1,"region":"South_Asia"},
  {"id":"visakhapatnam","name":"Visakhapatnam (India)","country":"IN","country_name":"India","lat":17.6868,"lon":83.2185,"population":2035922,"metro_population":2200000,"is_capital":false,"is_major_target":true,"has_military_base":true,"military_type":"submarine_base","nuclear_target_priority":1,"region":"South_Asia"},
  {"id":"ahmadabad","name":"Ahmedabad","country":"IN","country_name":"India","lat":23.0225,"lon":72.5714,"population":7410000,"metro_population":8000000,"is_capital":false,"is_major_target":false,"has_military_base":false,"military_type":null,"nuclear_target_priority":3,"region":"South_Asia"},
  {"id":"lucknow","name":"Lucknow","country":"IN","country_name":"India","lat":26.8467,"lon":80.9462,"population":3500000,"metro_population":3600000,"is_capital":false,"is_major_target":false,"has_military_base":false,"military_type":null,"nuclear_target_priority":3,"region":"South_Asia"},
  {"id":"jaipur","name":"Jaipur","country":"IN","country_name":"India","lat":26.9124,"lon":75.7873,"population":3046163,"metro_population":3300000,"is_capital":false,"is_major_target":false,"has_military_base":false,"military_type":null,"nuclear_target_priority":3,"region":"South_Asia"},
  {"id":"nagpur","name":"Nagpur","country":"IN","country_name":"India","lat":21.1458,"lon":79.0882,"population":2405665,"metro_population":2500000,"is_capital":false,"is_major_target":false,"has_military_base":false,"military_type":null,"nuclear_target_priority":3,"region":"South_Asia"},
  {"id":"surabaya","name":"Surabaya","country":"ID","country_name":"Indonesia","lat":-7.2575,"lon":112.7521,"population":2765487,"metro_population":10000000,"is_capital":false,"is_major_target":false,"has_military_base":false,"military_type":null,"nuclear_target_priority":3,"region":"Southeast_Asia"},
  {"id":"bandung","name":"Bandung","country":"ID","country_name":"Indonesia","lat":-6.9175,"lon":107.6191,"population":2575478,"metro_population":8000000,"is_capital":false,"is_major_target":false,"has_military_base":false,"military_type":null,"nuclear_target_priority":3,"region":"Southeast_Asia"},
  {"id":"medan","name":"Medan","country":"ID","country_name":"Indonesia","lat":3.5952,"lon":98.6722,"population":2210624,"metro_population":4000000,"is_capital":false,"is_major_target":false,"has_military_base":false,"military_type":null,"nuclear_target_priority":3,"region":"Southeast_Asia"},
  {"id":"cebu","name":"Cebu","country":"PH","country_name":"Philippines","lat":10.3157,"lon":123.8854,"population":922611,"metro_population":3000000,"is_capital":false,"is_major_target":false,"has_military_base":false,"military_type":null,"nuclear_target_priority":3,"region":"Southeast_Asia"},
  {"id":"davao","name":"Davao","country":"PH","country_name":"Philippines","lat":7.0722,"lon":125.6131,"population":1776949,"metro_population":2200000,"is_capital":false,"is_major_target":false,"has_military_base":false,"military_type":null,"nuclear_target_priority":3,"region":"Southeast_Asia"},
  {"id":"phoenix_us","name":"Davis-Monthan AFB","country":"US","country_name":"United States","lat":32.1667,"lon":-110.8833,"population":5000,"metro_population":null,"is_capital":false,"is_major_target":true,"has_military_base":true,"military_type":"command","nuclear_target_priority":2,"region":"North_America"},
  {"id":"las_vegas","name":"Las Vegas / Nellis AFB","country":"US","country_name":"United States","lat":36.1699,"lon":-115.1398,"population":641903,"metro_population":2227053,"is_capital":false,"is_major_target":false,"has_military_base":true,"military_type":"command","nuclear_target_priority":2,"region":"North_America"},
  {"id":"colorado_springs","name":"Colorado Springs (NORAD/NORTHCOM)","country":"US","country_name":"United States","lat":38.8339,"lon":-104.8214,"population":478961,"metro_population":745791,"is_capital":false,"is_major_target":true,"has_military_base":true,"military_type":"command","nuclear_target_priority":1,"region":"North_America"},
  {"id":"norfolk","name":"Norfolk Naval Station","country":"US","country_name":"United States","lat":36.9397,"lon":-76.3080,"population":245115,"metro_population":1800000,"is_capital":false,"is_major_target":true,"has_military_base":true,"military_type":"submarine_base","nuclear_target_priority":1,"region":"North_America"},
  {"id":"groton_ct","name":"Groton (Submarine Base)","country":"US","country_name":"United States","lat":41.3501,"lon":-72.0793,"population":38518,"metro_population":null,"is_capital":false,"is_major_target":true,"has_military_base":true,"military_type":"submarine_base","nuclear_target_priority":1,"region":"North_America"},
  {"id":"whiteman_afb","name":"Whiteman AFB (B-2)","country":"US","country_name":"United States","lat":38.7233,"lon":-93.5480,"population":5000,"metro_population":null,"is_capital":false,"is_major_target":true,"has_military_base":true,"military_type":"air_base","nuclear_target_priority":1,"region":"North_America"},
  {"id":"barksdale_afb","name":"Barksdale AFB (B-52)","country":"US","country_name":"United States","lat":32.5018,"lon":-93.6627,"population":5000,"metro_population":null,"is_capital":false,"is_major_target":true,"has_military_base":true,"military_type":"air_base","nuclear_target_priority":1,"region":"North_America"},
  {"id":"dyess_afb","name":"Dyess AFB (B-1/B-21)","country":"US","country_name":"United States","lat":32.4208,"lon":-99.8547,"population":5000,"metro_population":null,"is_capital":false,"is_major_target":true,"has_military_base":true,"military_type":"air_base","nuclear_target_priority":1,"region":"North_America"},
  {"id":"cheyenne_wyoming","name":"Cheyenne WY (F.E. Warren)","country":"US","country_name":"United States","lat":41.1400,"lon":-104.8202,"population":63624,"metro_population":100000,"is_capital":false,"is_major_target":true,"has_military_base":true,"military_type":"ICBM_field","nuclear_target_priority":1,"region":"North_America"},
  {"id":"great_falls_mt","name":"Great Falls MT (Malmstrom)","country":"US","country_name":"United States","lat":47.5002,"lon":-111.3008,"population":60442,"metro_population":90000,"is_capital":false,"is_major_target":true,"has_military_base":true,"military_type":"ICBM_field","nuclear_target_priority":1,"region":"North_America"},
  {"id":"minot_nd","name":"Minot ND (Minot AFB)","country":"US","country_name":"United States","lat":48.2325,"lon":-101.2963,"population":48423,"metro_population":75000,"is_capital":false,"is_major_target":true,"has_military_base":true,"military_type":"ICBM_field","nuclear_target_priority":1,"region":"North_America"},
  {"id":"tampa","name":"Tampa (CENTCOM/SOCOM)","country":"US","country_name":"United States","lat":27.9506,"lon":-82.4572,"population":399700,"metro_population":3194831,"is_capital":false,"is_major_target":true,"has_military_base":true,"military_type":"command","nuclear_target_priority":1,"region":"North_America"},
  {"id":"anchorage","name":"Anchorage","country":"US","country_name":"United States","lat":61.2181,"lon":-149.9003,"population":291247,"metro_population":397000,"is_capital":false,"is_major_target":true,"has_military_base":true,"military_type":"air_base","nuclear_target_priority":2,"region":"North_America"},
  {"id":"eielson_afb","name":"Eielson AFB Alaska","country":"US","country_name":"United States","lat":64.6657,"lon":-147.1020,"population":3000,"metro_population":null,"is_capital":false,"is_major_target":true,"has_military_base":true,"military_type":"air_base","nuclear_target_priority":2,"region":"North_America"},
  {"id":"clear_afb","name":"Clear Space Force Base (Alaska)","country":"US","country_name":"United States","lat":64.2954,"lon":-149.1960,"population":500,"metro_population":null,"is_capital":false,"is_major_target":true,"has_military_base":true,"military_type":"command","nuclear_target_priority":1,"region":"North_America"},
  {"id":"portland","name":"Portland","country":"US","country_name":"United States","lat":45.5234,"lon":-122.6762,"population":652503,"metro_population":2492412,"is_capital":false,"is_major_target":false,"has_military_base":false,"military_type":null,"nuclear_target_priority":3,"region":"North_America"},
  {"id":"new_orleans","name":"New Orleans","country":"US","country_name":"United States","lat":29.9511,"lon":-90.0715,"population":383997,"metro_population":1270399,"is_capital":false,"is_major_target":false,"has_military_base":false,"military_type":null,"nuclear_target_priority":3,"region":"North_America"},
  {"id":"kansas_city","name":"Kansas City","country":"US","country_name":"United States","lat":39.0997,"lon":-94.5786,"population":508090,"metro_population":2190786,"is_capital":false,"is_major_target":false,"has_military_base":false,"military_type":null,"nuclear_target_priority":3,"region":"North_America"},
  {"id":"st_louis","name":"St. Louis","country":"US","country_name":"United States","lat":38.6270,"lon":-90.1994,"population":301578,"metro_population":2807002,"is_capital":false,"is_major_target":false,"has_military_base":false,"military_type":null,"nuclear_target_priority":3,"region":"North_America"},
  {"id":"baltimore","name":"Baltimore","country":"US","country_name":"United States","lat":39.2904,"lon":-76.6122,"population":585708,"metro_population":2928449,"is_capital":false,"is_major_target":false,"has_military_base":false,"military_type":null,"nuclear_target_priority":3,"region":"North_America"},
  {"id":"san_francisco","name":"San Francisco","country":"US","country_name":"United States","lat":37.7749,"lon":-122.4194,"population":881549,"metro_population":4749008,"is_capital":false,"is_major_target":true,"has_military_base":false,"military_type":null,"nuclear_target_priority":2,"region":"North_America"},
  {"id":"novosibirsk_icbm","name":"Novosibirsk ICBM Field","country":"RU","country_name":"Russia","lat":54.8547,"lon":83.0918,"population":1000,"metro_population":null,"is_capital":false,"is_major_target":true,"has_military_base":true,"military_type":"ICBM_field","nuclear_target_priority":1,"region":"Russia"},
  {"id":"engels_afb","name":"Engels Air Base (Tu-160)","country":"RU","country_name":"Russia","lat":51.4694,"lon":46.1594,"population":5000,"metro_population":null,"is_capital":false,"is_major_target":true,"has_military_base":true,"military_type":"air_base","nuclear_target_priority":1,"region":"Russia"},
  {"id":"shaikovka_afb","name":"Shaikovka AB (Tu-22M)","country":"RU","country_name":"Russia","lat":54.2167,"lon":34.1833,"population":3000,"metro_population":null,"is_capital":false,"is_major_target":true,"has_military_base":true,"military_type":"air_base","nuclear_target_priority":1,"region":"Russia"},
  {"id":"zhukovsky_afb","name":"Zhukovsky Test Center","country":"RU","country_name":"Russia","lat":55.5972,"lon":38.1169,"population":50000,"metro_population":null,"is_capital":false,"is_major_target":true,"has_military_base":true,"military_type":"command","nuclear_target_priority":2,"region":"Russia"},
  {"id":"irkutsk","name":"Irkutsk","country":"RU","country_name":"Russia","lat":52.2855,"lon":104.2890,"population":623479,"metro_population":700000,"is_capital":false,"is_major_target":false,"has_military_base":false,"military_type":null,"nuclear_target_priority":3,"region":"Russia"},
  {"id":"saratov","name":"Saratov","country":"RU","country_name":"Russia","lat":51.5924,"lon":46.0343,"population":843460,"metro_population":1000000,"is_capital":false,"is_major_target":false,"has_military_base":false,"military_type":null,"nuclear_target_priority":3,"region":"Russia"},
  {"id":"volgograd","name":"Volgograd","country":"RU","country_name":"Russia","lat":48.7080,"lon":44.5133,"population":1013533,"metro_population":1100000,"is_capital":false,"is_major_target":false,"has_military_base":false,"military_type":null,"nuclear_target_priority":3,"region":"Russia"},
  {"id":"krasnodar","name":"Krasnodar","country":"RU","country_name":"Russia","lat":45.0253,"lon":38.9769,"population":933305,"metro_population":1100000,"is_capital":false,"is_major_target":false,"has_military_base":true,"military_type":"air_base","nuclear_target_priority":2,"region":"Russia"},
  {"id":"tyumen","name":"Tyumen","country":"RU","country_name":"Russia","lat":57.1522,"lon":65.5272,"population":804198,"metro_population":900000,"is_capital":false,"is_major_target":false,"has_military_base":false,"military_type":null,"nuclear_target_priority":3,"region":"Russia"},
  {"id":"tobolsk","name":"Tobolsk","country":"RU","country_name":"Russia","lat":58.2004,"lon":68.2522,"population":100700,"metro_population":null,"is_capital":false,"is_major_target":false,"has_military_base":false,"military_type":null,"nuclear_target_priority":3,"region":"Russia"},
  {"id":"sochi","name":"Sochi","country":"RU","country_name":"Russia","lat":43.6028,"lon":39.7342,"population":411524,"metro_population":500000,"is_capital":false,"is_major_target":false,"has_military_base":false,"military_type":null,"nuclear_target_priority":3,"region":"Russia"},
  {"id":"perm","name":"Perm","country":"RU","country_name":"Russia","lat":58.0105,"lon":56.2502,"population":1055397,"metro_population":1100000,"is_capital":false,"is_major_target":false,"has_military_base":false,"military_type":null,"nuclear_target_priority":3,"region":"Russia"},
  {"id":"voronezh_radar","name":"Voronezh Radar Site","country":"RU","country_name":"Russia","lat":51.6755,"lon":39.2088,"population":1000,"metro_population":null,"is_capital":false,"is_major_target":true,"has_military_base":true,"military_type":"command","nuclear_target_priority":1,"region":"Russia"},
  {"id":"okinawa","name":"Okinawa / Kadena AFB","country":"JP","country_name":"Japan","lat":26.3559,"lon":127.7833,"population":1453531,"metro_population":null,"is_capital":false,"is_major_target":true,"has_military_base":true,"military_type":"air_base","nuclear_target_priority":1,"region":"East_Asia"},
  {"id":"fukuoka","name":"Fukuoka","country":"JP","country_name":"Japan","lat":33.5902,"lon":130.4017,"population":1612392,"metro_population":5600000,"is_capital":false,"is_major_target":false,"has_military_base":false,"military_type":null,"nuclear_target_priority":3,"region":"East_Asia"},
  {"id":"hiroshima","name":"Hiroshima","country":"JP","country_name":"Japan","lat":34.3853,"lon":132.4553,"population":1199391,"metro_population":2200000,"is_capital":false,"is_major_target":false,"has_military_base":false,"military_type":null,"nuclear_target_priority":3,"region":"East_Asia"},
  {"id":"sendai","name":"Sendai","country":"JP","country_name":"Japan","lat":38.2682,"lon":140.8694,"population":1082159,"metro_population":2900000,"is_capital":false,"is_major_target":false,"has_military_base":false,"military_type":null,"nuclear_target_priority":3,"region":"East_Asia"},
  {"id":"gwangju","name":"Gwangju (Osan AFB area)","country":"KR","country_name":"South Korea","lat":35.1595,"lon":126.8526,"population":1456468,"metro_population":1800000,"is_capital":false,"is_major_target":false,"has_military_base":true,"military_type":"air_base","nuclear_target_priority":2,"region":"East_Asia"},
  {"id":"daegu","name":"Daegu","country":"KR","country_name":"South Korea","lat":35.8714,"lon":128.6014,"population":2418346,"metro_population":2700000,"is_capital":false,"is_major_target":false,"has_military_base":true,"military_type":"air_base","nuclear_target_priority":2,"region":"East_Asia"},
  {"id":"kunsan_afb","name":"Kunsan AFB (South Korea)","country":"KR","country_name":"South Korea","lat":35.9038,"lon":126.6159,"population":5000,"metro_population":null,"is_capital":false,"is_major_target":true,"has_military_base":true,"military_type":"air_base","nuclear_target_priority":1,"region":"East_Asia"},
  {"id":"osan_afb","name":"Osan AFB (South Korea)","country":"KR","country_name":"South Korea","lat":37.0900,"lon":127.0303,"population":8000,"metro_population":null,"is_capital":false,"is_major_target":true,"has_military_base":true,"military_type":"air_base","nuclear_target_priority":1,"region":"East_Asia"},
  {"id":"camp_humphreys","name":"Camp Humphreys (USFK HQ)","country":"KR","country_name":"South Korea","lat":36.9694,"lon":127.0299,"population":30000,"metro_population":null,"is_capital":false,"is_major_target":true,"has_military_base":true,"military_type":"command","nuclear_target_priority":1,"region":"East_Asia"},
  {"id":"wonsan","name":"Wonsan","country":"KP","country_name":"North Korea","lat":39.1539,"lon":127.4439,"population":363127,"metro_population":null,"is_capital":false,"is_major_target":true,"has_military_base":true,"military_type":"submarine_base","nuclear_target_priority":2,"region":"East_Asia"},
  {"id":"hamhung","name":"Hamhung","country":"KP","country_name":"North Korea","lat":39.9183,"lon":127.5361,"population":768551,"metro_population":null,"is_capital":false,"is_major_target":true,"has_military_base":false,"military_type":null,"nuclear_target_priority":2,"region":"East_Asia"},
  {"id":"sunchon","name":"Sunchon Missile Base (NK)","country":"KP","country_name":"North Korea","lat":39.4314,"lon":125.9208,"population":317829,"metro_population":null,"is_capital":false,"is_major_target":true,"has_military_base":true,"military_type":"ICBM_field","nuclear_target_priority":1,"region":"East_Asia"},
  {"id":"chongjin","name":"Chongjin","country":"KP","country_name":"North Korea","lat":41.7950,"lon":129.7759,"population":627000,"metro_population":null,"is_capital":false,"is_major_target":false,"has_military_base":false,"military_type":null,"nuclear_target_priority":3,"region":"East_Asia"},
  {"id":"kaesong","name":"Kaesong","country":"KP","country_name":"North Korea","lat":37.9700,"lon":126.5500,"population":308440,"metro_population":null,"is_capital":false,"is_major_target":false,"has_military_base":false,"military_type":null,"nuclear_target_priority":3,"region":"East_Asia"},
  {"id":"ulan_ude","name":"Ulan-Ude","country":"RU","country_name":"Russia","lat":51.8307,"lon":107.6119,"population":431922,"metro_population":500000,"is_capital":false,"is_major_target":false,"has_military_base":false,"military_type":null,"nuclear_target_priority":3,"region":"Russia"},
  {"id":"chita","name":"Chita","country":"RU","country_name":"Russia","lat":52.0339,"lon":113.5013,"population":347088,"metro_population":400000,"is_capital":false,"is_major_target":false,"has_military_base":false,"military_type":null,"nuclear_target_priority":3,"region":"Russia"},
  {"id":"yakutsk","name":"Yakutsk","country":"RU","country_name":"Russia","lat":62.0354,"lon":129.6752,"population":310317,"metro_population":350000,"is_capital":false,"is_major_target":false,"has_military_base":false,"military_type":null,"nuclear_target_priority":3,"region":"Russia"},
  {"id":"arkhangelsk","name":"Arkhangelsk","country":"RU","country_name":"Russia","lat":64.5401,"lon":40.5433,"population":348716,"metro_population":380000,"is_capital":false,"is_major_target":true,"has_military_base":true,"military_type":"submarine_base","nuclear_target_priority":2,"region":"Russia"},
  {"id":"severodvinsk","name":"Severodvinsk","country":"RU","country_name":"Russia","lat":64.5587,"lon":39.8302,"population":185570,"metro_population":null,"is_capital":false,"is_major_target":true,"has_military_base":true,"military_type":"submarine_base","nuclear_target_priority":1,"region":"Russia"},
  {"id":"magadan","name":"Magadan","country":"RU","country_name":"Russia","lat":59.5687,"lon":150.7976,"population":91781,"metro_population":null,"is_capital":false,"is_major_target":false,"has_military_base":false,"military_type":null,"nuclear_target_priority":3,"region":"Russia"},
  {"id":"norilsk","name":"Norilsk","country":"RU","country_name":"Russia","lat":69.3558,"lon":88.1893,"population":176498,"metro_population":null,"is_capital":false,"is_major_target":false,"has_military_base":false,"military_type":null,"nuclear_target_priority":3,"region":"Russia"},
  {"id":"barnaul","name":"Barnaul","country":"RU","country_name":"Russia","lat":53.3497,"lon":83.6746,"population":632871,"metro_population":700000,"is_capital":false,"is_major_target":false,"has_military_base":false,"military_type":null,"nuclear_target_priority":3,"region":"Russia"},
  {"id":"izhevsk","name":"Izhevsk","country":"RU","country_name":"Russia","lat":56.8527,"lon":53.2048,"population":640849,"metro_population":700000,"is_capital":false,"is_major_target":false,"has_military_base":false,"military_type":null,"nuclear_target_priority":3,"region":"Russia"},
  {"id":"orenburg","name":"Orenburg","country":"RU","country_name":"Russia","lat":51.7727,"lon":55.0988,"population":564443,"metro_population":600000,"is_capital":false,"is_major_target":false,"has_military_base":false,"military_type":null,"nuclear_target_priority":3,"region":"Russia"},
  {"id":"tula","name":"Tula","country":"RU","country_name":"Russia","lat":54.1961,"lon":37.6182,"population":479087,"metro_population":550000,"is_capital":false,"is_major_target":true,"has_military_base":true,"military_type":"command","nuclear_target_priority":2,"region":"Russia"},
  {"id":"bryansk","name":"Bryansk","country":"RU","country_name":"Russia","lat":53.2421,"lon":34.3717,"population":403238,"metro_population":450000,"is_capital":false,"is_major_target":false,"has_military_base":false,"military_type":null,"nuclear_target_priority":3,"region":"Russia"},
  {"id":"ryazan","name":"Ryazan","country":"RU","country_name":"Russia","lat":54.6269,"lon":39.6916,"population":539290,"metro_population":600000,"is_capital":false,"is_major_target":false,"has_military_base":false,"military_type":null,"nuclear_target_priority":3,"region":"Russia"},
  {"id":"yaroslavl","name":"Yaroslavl","country":"RU","country_name":"Russia","lat":57.6261,"lon":39.8845,"population":601330,"metro_population":650000,"is_capital":false,"is_major_target":false,"has_military_base":false,"military_type":null,"nuclear_target_priority":3,"region":"Russia"},
  {"id":"penza","name":"Penza","country":"RU","country_name":"Russia","lat":53.1950,"lon":45.0186,"population":516823,"metro_population":570000,"is_capital":false,"is_major_target":false,"has_military_base":false,"military_type":null,"nuclear_target_priority":3,"region":"Russia"},